{"objects":[{"id":"e9f880ed-5f64-46d8-81bb-b92d78332a14","geometry":{"coordinates":[6.0036,53.2713],"type":"Point"},"properties":{"name":"camping de houtwiel","city":"BROEKSTERWÂLD","type_camping":"0","facilities":null,"address":null}},{"id":"e6ee9031-7c2b-4d5d-9fbc-0b5b6ad0f5e9","geometry":{"coordinates":[6.3581,52.6978],"type":"Point"},"properties":{"name":"de weidewei","city":"KOEKANGE","type_camping":"2","facilities":null,"address":null}},{"id":"cf767070-f256-4528-aaa6-74e1a76ca2a8","geometry":{"coordinates":[6.0069,52.6576],"type":"Point"},"properties":{"name":"camping landløk","city":"VOLLENHOVE","type_camping":"0","facilities":null,"address":null}},{"id":"4b7bf8aa-ecee-4349-a442-22ce13c78cb8","geometry":{"coordinates":[5.5593,52.9784],"type":"Point"},"properties":{"name":"camping het klokhus","city":"IDZEGA","type_camping":"2","facilities":null,"address":null}},{"id":"923fa162-a82c-4776-ad5b-94080e733136","geometry":{"coordinates":[1.6425,47.1283],"type":"Point"},"properties":{"name":"le rêve de poulaines","city":"POULAINES","type_camping":"2","facilities":null,"address":null}},{"id":"51e02e22-d8f1-403f-b62a-35ee6ec27273","geometry":{"coordinates":[10.6688,47.4453],"type":"Point"},"properties":{"name":"lechcamping spirkenhof","city":"EHENBICHL","type_camping":"2","facilities":null,"address":null}},{"id":"4cd797c2-e158-49ef-84d0-50363ad1d7db","geometry":{"coordinates":[6.2236,53.0038],"type":"Point"},"properties":{"name":"dagbesteding \u0026 minicamping \u0027de cuynder\u0027","city":"DONKERBROEK","type_camping":"0","facilities":null,"address":null}},{"id":"69270cb9-0e72-4c5b-ad6c-0296c19fd48b","geometry":{"coordinates":[6.2815,53.0798],"type":"Point"},"properties":{"name":"camping it kroese beamke","city":"BAKKEVEEN","type_camping":"2","facilities":null,"address":null}},{"id":"d0e92cb8-6a6e-432e-bb15-71c3050528a1","geometry":{"coordinates":[5.5829,52.282],"type":"Point"},"properties":{"name":"camping klarenbeek","city":"ERMELO","type_camping":"2","facilities":null,"address":null}},{"id":"58007317-2101-46dc-9789-8383703434bf","geometry":{"coordinates":[6.1094,52.2089],"type":"Point"},"properties":{"name":"kampeerhoeve bussloo","city":"WILP","type_camping":"2","facilities":null,"address":null}},{"id":"19b2e24f-8187-41b1-8a37-fd31d68f01f5","geometry":{"coordinates":[4.9435,52.5237],"type":"Point"},"properties":{"name":"camping in het fruit","city":"ZUIDOOSTBEEMSTER","type_camping":"2","facilities":null,"address":null}},{"id":"2fd8e82a-e058-428b-b65d-26023be8ec08","geometry":{"coordinates":[3.3904,51.2773],"type":"Point"},"properties":{"name":"landschapscamping polderzicht","city":"SLUIS","type_camping":"2","facilities":null,"address":null}},{"id":"aad73a95-f12e-467a-acbc-d409b73a7e7d","geometry":{"coordinates":[5.667,52.8152],"type":"Point"},"properties":{"name":"camping polderhof","city":"RUTTEN","type_camping":"2","facilities":null,"address":null}},{"id":"8e9ff4d0-8b3f-456e-935e-74b42e4a4fc2","geometry":{"coordinates":[6.2355,52.9405],"type":"Point"},"properties":{"name":"recreatiebedrijf d\u0027elf ieken","city":"ELSLOO","type_camping":"2","facilities":null,"address":null}},{"id":"d005f554-9486-4b86-a63b-b43d3e478609","geometry":{"coordinates":[-0.9653,45.7745],"type":"Point"},"properties":{"name":"camping le valerick","city":"SAINT MORNIN","type_camping":"2","facilities":null,"address":null}},{"id":"bf816bb6-eb41-46d0-8025-18b5fc2df759","geometry":{"coordinates":[5.7412,53.0657],"type":"Point"},"properties":{"name":"boerennatuurcamping by age","city":"TERSOAL","type_camping":"2","facilities":null,"address":null}},{"id":"b46e6049-14fc-4646-a209-f8d209c2f74a","geometry":{"coordinates":[2.3408,46.5549],"type":"Point"},"properties":{"name":"camping culan","city":"CULAN","type_camping":"2","facilities":null,"address":null}},{"id":"c3ed7c5d-9192-4651-b766-052fa8abee98","geometry":{"coordinates":[7.3012,52.9093],"type":"Point"},"properties":{"name":"camping emstal","city":"SUSTRUM","type_camping":"0","facilities":null,"address":null}},{"id":"c583a34e-6832-4bc9-9f00-0d3540870eab","geometry":{"coordinates":[9.0037,52.8074],"type":"Point"},"properties":{"name":"bruchmühlen","city":"BRUCHHAUSEN-VILSEN","type_camping":"2","facilities":null,"address":null}},{"id":"2973e35d-d835-444e-9851-4e59e87ca34f","geometry":{"coordinates":[15.6691,51.0191],"type":"Point"},"properties":{"name":"camping wlen zarzecze","city":"WLEN","type_camping":"0","facilities":null,"address":null}},{"id":"df01fa4e-815d-44c5-8779-10806f6ae8c5","geometry":{"coordinates":[5.9178,52.8634],"type":"Point"},"properties":{"name":"minicamping onder de es","city":"OLDELAMER","type_camping":"2","facilities":null,"address":null}},{"id":"ef24b4ad-f759-42be-87ad-c47e0430187a","geometry":{"coordinates":[5.6176,53.2742],"type":"Point"},"properties":{"name":"de bouckhorst","city":"SINT JACOBIPAROCHIE","type_camping":"2","facilities":null,"address":null}},{"id":"7cef22e8-43f6-4894-aec6-b43175f17833","geometry":{"coordinates":[5.5193,52.9734],"type":"Point"},"properties":{"name":"kaepwei 5","city":"GAASTMEER","type_camping":"2","facilities":null,"address":null}},{"id":"77c9a2a0-0a50-47ff-a7c1-5a27c5f96030","geometry":{"coordinates":[6.7758,52.8224],"type":"Point"},"properties":{"name":"bospark aagjeshoeve","city":"SCHOONOORD","type_camping":"2","facilities":null,"address":null}},{"id":"905d6e6d-16a7-4685-a0d5-31f0b84279f6","geometry":{"coordinates":[6.2902,52.7989],"type":"Point"},"properties":{"name":"minicamping boerdam","city":"UFFELTE","type_camping":"2","facilities":null,"address":null}},{"id":"28a3d417-d2a9-4514-888f-084e165fd40b","geometry":{"coordinates":[6.8872,52.8652],"type":"Point"},"properties":{"name":"camping exloo","city":"EXLOO","type_camping":"0","facilities":null,"address":null}},{"id":"ca293bdf-902d-4243-b7ab-f934c58ca4a5","geometry":{"coordinates":[6.7574,53.0657],"type":"Point"},"properties":{"name":"hunze bulten","city":"ANNEN","type_camping":"2","facilities":null,"address":null}},{"id":"aae07c93-115e-4ac6-bad2-a76fe9471f19","geometry":{"coordinates":[6.6485,52.5329],"type":"Point"},"properties":{"name":"minicamping de lanter fanter","city":"BRUCHTERVELD","type_camping":"0","facilities":null,"address":null}},{"id":"bfd3edbf-40cd-4e38-9262-609b16b8ba2a","geometry":{"coordinates":[5.8666,51.6512],"type":"Point"},"properties":{"name":"minicamping de walsert","city":"RIJKEVOORT-DE WALSERT","type_camping":"0","facilities":null,"address":null}},{"id":"25f0646d-110d-4922-bbfc-63174a61eba9","geometry":{"coordinates":[5.9456,51.7168],"type":"Point"},"properties":{"name":"camping \"de bloemenkamp\"","city":"MILSBEEK","type_camping":"0","facilities":null,"address":null}},{"id":"f5c77e81-aad1-42b2-9586-03fa2defc8d0","geometry":{"coordinates":[1.9625,46.3954],"type":"Point"},"properties":{"name":"moulin des forges","city":"MOUTIER MALCARD","type_camping":"2","facilities":null,"address":null}},{"id":"48843831-a2dd-4d8b-813c-d9ad9646e856","geometry":{"coordinates":[3.8085,49.4911],"type":"Point"},"properties":{"name":"camping du moulin","city":"AIZELLES","type_camping":"2","facilities":null,"address":null}},{"id":"5cacff02-4566-4957-a769-e9a6cf64a7ec","geometry":{"coordinates":[1.9719,45.3073],"type":"Point"},"properties":{"name":"camping domaine de lallé","city":"CHAMPAGNAC-LA-NOAILLE","type_camping":"2","facilities":null,"address":null}},{"id":"4ac315ea-cff0-4a57-ba58-6acc6116340f","geometry":{"coordinates":[5.5194,48.9454],"type":"Point"},"properties":{"name":"viens et vois","city":"ROUVROIS SUR MEUSE","type_camping":"2","facilities":null,"address":null}},{"id":"5cf414b9-7bc1-4efc-9578-733f376908de","geometry":{"coordinates":[-8.0112,41.4616],"type":"Point"},"properties":{"name":"quinta valbom","city":"RIBAS","type_camping":"2","facilities":null,"address":null}},{"id":"495153b9-4b06-4f22-8757-e0d251f3d92a","geometry":{"coordinates":[16.7026,46.5378],"type":"Point"},"properties":{"name":"zöld zóna lispe camping","city":"LISPESZENTADORJÁN","type_camping":"0","facilities":null,"address":null}},{"id":"94cb0d2b-45a0-40cb-9145-c096adc44aeb","geometry":{"coordinates":[14.4208,62.411],"type":"Point"},"properties":{"name":"nederhögen vildmarkscenter","city":"RÄTAN","type_camping":"2","facilities":null,"address":null}},{"id":"be156822-5afb-4f1a-aecd-59647897d60f","geometry":{"coordinates":[5.2856,46.79],"type":"Point"},"properties":{"name":"camping les arbois","city":"MONTJAY","type_camping":"2","facilities":null,"address":null}},{"id":"5caf5f31-8829-47f6-84e3-7dae9ac2cb34","geometry":{"coordinates":[6.2219,53.1958],"type":"Point"},"properties":{"name":"camperplaats peebos 33","city":"DOEZUM","type_camping":"0","facilities":null,"address":null}},{"id":"1be8105e-0162-48eb-b161-facdfefaa93f","geometry":{"coordinates":[7.1139,52.9421],"type":"Point"},"properties":{"name":"camping harminahoeve","city":"SELLINGEN","type_camping":"2","facilities":null,"address":null}},{"id":"0b3c7fb5-ed90-412b-ab34-678c10d01247","geometry":{"coordinates":[6.3306,53.3566],"type":"Point"},"properties":{"name":"camping de watergeuzen","city":"ULRUM","type_camping":"0","facilities":null,"address":null}},{"id":"187625e1-c584-480d-bd2f-1bbd6a646065","geometry":{"coordinates":[7.0454,52.8939],"type":"Point"},"properties":{"name":"buitengoed het achterdiep","city":"TER APEL","type_camping":"2","facilities":null,"address":null}},{"id":"837a0f91-4308-48ce-b584-0c2375cdabc6","geometry":{"coordinates":[-0.0329,43.105],"type":"Point"},"properties":{"name":"camping le vieux berger","city":"LOURDES","type_camping":"2","facilities":null,"address":null}},{"id":"51d3bbfa-c65b-48ad-a30a-a36ce21ac064","geometry":{"coordinates":[7.6188,49.5804],"type":"Point"},"properties":{"name":"camping am köningsberg in wolfstein","city":"WOLFSTEIN","type_camping":"2","facilities":null,"address":null}},{"id":"979cc018-ac71-47ba-8bd4-33cbab4854f3","geometry":{"coordinates":[12.8385,52.4534],"type":"Point"},"properties":{"name":"landhof schmergow","city":"GROß KREUTZ OT SCHMERGOW","type_camping":"0","facilities":null,"address":null}},{"id":"259b30e7-0f0d-4615-a992-620ea6313106","geometry":{"coordinates":[16.2975,62.0165],"type":"Point"},"properties":{"name":"björsarv camping","city":"BJURAKER","type_camping":"2","facilities":null,"address":null}},{"id":"8f0d323f-c518-4d03-a6a8-443c3e020fc3","geometry":{"coordinates":[7.1477,53.0953],"type":"Point"},"properties":{"name":"camping boerderheij de pelgrim","city":"BELLINGWOLDE","type_camping":"0","facilities":null,"address":null}},{"id":"39ad19ce-d457-4588-a29f-c5b4e3c978a1","geometry":{"coordinates":[6.5965,52.7916],"type":"Point"},"properties":{"name":"camping landgoed geuzenbos","city":"MANTINGE","type_camping":"0","facilities":null,"address":null}},{"id":"dd1ced2b-e9b1-4c16-a6cb-0c8a59357d6b","geometry":{"coordinates":[6.8387,53.0264],"type":"Point"},"properties":{"name":"kampeerboerderij de broekse hoeve","city":"GIETERVEEN","type_camping":"2","facilities":null,"address":null}},{"id":"68489329-07e1-4249-89e4-605004889c2f","geometry":{"coordinates":[6.458,53.0671],"type":"Point"},"properties":{"name":"gastenverblijf \u0027t westeind","city":"NORG","type_camping":"1","facilities":null,"address":null}},{"id":"a852a53d-df5f-40ec-9e1d-e596cf9d3375","geometry":{"coordinates":[6.5585,52.5297],"type":"Point"},"properties":{"name":"camping kien","city":"DIFFELEN","type_camping":"0","facilities":null,"address":null}},{"id":"36cdaf07-3695-4fc3-abb3-2c124ca665b4","geometry":{"coordinates":[6.5377,52.5213],"type":"Point"},"properties":{"name":"camping vechtdal hooglanders","city":"BEERZE","type_camping":"0","facilities":null,"address":null}},{"id":"31638ed3-682e-4f8c-a7ab-bb8f3e4d83ba","geometry":{"coordinates":[3.4748,51.5347],"type":"Point"},"properties":{"name":"minicamping francke","city":"WESTKAPELLE","type_camping":"2","facilities":null,"address":null}},{"id":"2686aadc-ff92-48a1-b304-a3a21ce16486","geometry":{"coordinates":[6.0142,53.2908],"type":"Point"},"properties":{"name":"camping botniahiem","city":"DAMWOUDE","type_camping":"2","facilities":null,"address":null}},{"id":"f2e15d3d-936f-456d-b456-fd290c912bcd","geometry":{"coordinates":[6.4561,53.0675],"type":"Point"},"properties":{"name":"camping het centrum","city":"NORG","type_camping":"2","facilities":null,"address":null}},{"id":"f226c07f-2c52-4b86-9c15-7ca0654e75ec","geometry":{"coordinates":[6.3679,53.1001],"type":"Point"},"properties":{"name":"hondencamping evensterk","city":"EEN","type_camping":"2","facilities":null,"address":null}},{"id":"95993478-39a2-47b2-b103-3ac1d62bf6d7","geometry":{"coordinates":[6.4788,52.8384],"type":"Point"},"properties":{"name":"camping zwaluwlust","city":"BEILEN","type_camping":"2","facilities":null,"address":null}},{"id":"4ad2d112-0140-4bec-8335-87d9a876ac3c","geometry":{"coordinates":[6.8052,53.0741],"type":"Point"},"properties":{"name":"camping annerveenschekanaal","city":"ANNERVEENSCHEKANAAL","type_camping":"0","facilities":null,"address":null}},{"id":"2824b3fe-5ad2-44e9-80c3-5812b9b3253b","geometry":{"coordinates":[6.8397,53.0239],"type":"Point"},"properties":{"name":"camping buitengoed de veenstede","city":"GIETERVEEN","type_camping":"2","facilities":null,"address":null}},{"id":"b8cadf74-9d27-4b48-82b5-6e7b5db09fe7","geometry":{"coordinates":[6.1871,52.8781],"type":"Point"},"properties":{"name":"camping bij het ven","city":"VLEDDERVEEN","type_camping":"0","facilities":null,"address":null}},{"id":"791b6818-bbd2-4e2b-8843-df8b721d3628","geometry":{"coordinates":[6.3107,52.8969],"type":"Point"},"properties":{"name":"camping \u0027t oude willemsveldt","city":"OUDE WILLEM","type_camping":"2","facilities":null,"address":null}},{"id":"e3903241-d350-4de4-b361-dd5599df51fe","geometry":{"coordinates":[6.79,52.9788],"type":"Point"},"properties":{"name":"camping madeliefje","city":"GASSELTE","type_camping":"0","facilities":null,"address":null}},{"id":"9f775dce-df5b-42e3-a287-2570b9b0e6cb","geometry":{"coordinates":[6.2731,52.7375],"type":"Point"},"properties":{"name":"vakantieplek de toffe peer","city":"RUINERWOLD","type_camping":"2","facilities":null,"address":null}},{"id":"4c1fd7ab-0d5e-4690-8aba-dd66fb333b5d","geometry":{"coordinates":[5.9767,52.8165],"type":"Point"},"properties":{"name":"landwinkel/camping de waterbuffelfarm","city":"OLDEMARKT","type_camping":"2","facilities":null,"address":null}},{"id":"e383815c-4c4d-4773-8c74-09ebffa50bac","geometry":{"coordinates":[6.8239,52.1504],"type":"Point"},"properties":{"name":"camping de veldscholte","city":"HAAKSBERGEN","type_camping":"2","facilities":null,"address":null}},{"id":"2b786815-07a4-4f89-8410-d0f622a689c2","geometry":{"coordinates":[7.0256,52.4107],"type":"Point"},"properties":{"name":"erve wezenberg","city":"DENEKAMP","type_camping":"2","facilities":null,"address":null}},{"id":"b38aa9c2-dc46-42f4-9297-5e61ca9b1353","geometry":{"coordinates":[6.5046,52.3825],"type":"Point"},"properties":{"name":"camping bij de schaapskooi","city":"NIJVERDAL","type_camping":"0","facilities":null,"address":null}},{"id":"f1203977-dfab-45af-aedf-03ba51d65372","geometry":{"coordinates":[6.3835,52.5366],"type":"Point"},"properties":{"name":"boerderijcamping het varsenerveld","city":"OMMEN","type_camping":"2","facilities":null,"address":null}},{"id":"5592bfc9-570e-4ee0-b9b2-7aad9973b01a","geometry":{"coordinates":[6.4536,52.585],"type":"Point"},"properties":{"name":"boerencamping de binnentuin","city":"DEDEMSVAART","type_camping":"0","facilities":null,"address":null}},{"id":"e2bbe0f8-296f-4e6a-a6de-41a77437f41d","geometry":{"coordinates":[6.63,52.1794],"type":"Point"},"properties":{"name":"camping markveldseveld","city":"DIEPENHEIM","type_camping":"0","facilities":null,"address":null}},{"id":"b3999643-296e-4e79-b8ac-113fdc73e2d1","geometry":{"coordinates":[6.8109,52.3054],"type":"Point"},"properties":{"name":"camping dalmeden","city":"HENGELO (OV)","type_camping":"0","facilities":null,"address":null}},{"id":"1742c223-26c9-4ae0-90d2-ab2d13bbaeae","geometry":{"coordinates":[6.5304,52.3271],"type":"Point"},"properties":{"name":"landschapscamping grimberghoeve","city":"NOTTER","type_camping":"2","facilities":null,"address":null}},{"id":"d4555cd9-9ba0-46e0-92b6-0f617e41cc70","geometry":{"coordinates":[6.3539,52.26],"type":"Point"},"properties":{"name":"camping de coolewee","city":"BATHMEN","type_camping":"0","facilities":null,"address":null}},{"id":"84bdeb8e-59c7-4cad-998e-af60bce3517e","geometry":{"coordinates":[6.1435,52.7792],"type":"Point"},"properties":{"name":"camping steenwijkerkamp","city":"STEENWIJK","type_camping":"0","facilities":null,"address":null}},{"id":"545405bd-9bc3-49fb-ae6e-e21548821c64","geometry":{"coordinates":[5.981,52.6828],"type":"Point"},"properties":{"name":"camping de schaarkamp","city":"SINT JANSKLOOSTER","type_camping":"0","facilities":null,"address":null}},{"id":"b4d063c2-1371-4603-83f6-a1c010a71933","geometry":{"coordinates":[5.5877,53.164],"type":"Point"},"properties":{"name":"minicamping de slypstien","city":"WJELSRYP","type_camping":"2","facilities":null,"address":null}},{"id":"329d783b-1d19-4d7a-bdcf-782357466e69","geometry":{"coordinates":[6.2136,53.0928],"type":"Point"},"properties":{"name":"minicamping de beamwal","city":"SIEGERSWOUDE","type_camping":"0","facilities":null,"address":null}},{"id":"3000543e-643d-40cd-ac47-1592dc40ad64","geometry":{"coordinates":[6.5072,52.6218],"type":"Point"},"properties":{"name":"minicamping de goede berg","city":"DROGTEROPSLAGEN","type_camping":"2","facilities":null,"address":null}},{"id":"06533dd8-8750-4951-b624-1dfa008f8114","geometry":{"coordinates":[7.0455,52.7076],"type":"Point"},"properties":{"name":"camping veenweide","city":"ZWARTEMEER","type_camping":"0","facilities":null,"address":null}},{"id":"ee4d6d1d-1007-4dcd-b703-3123782f2752","geometry":{"coordinates":[6.6771,53.1095],"type":"Point"},"properties":{"name":"minicamping de appelhof","city":"MIDLAREN","type_camping":"0","facilities":null,"address":null}},{"id":"904a1894-dcdc-48af-aa7e-941546f1a3eb","geometry":{"coordinates":[6.4865,52.8193],"type":"Point"},"properties":{"name":"camping de bosrand","city":"SPIER","type_camping":"2","facilities":null,"address":null}},{"id":"15319bde-5245-4a16-ba1a-43dc67979024","geometry":{"coordinates":[6.408,52.8257],"type":"Point"},"properties":{"name":"vakantiehuis d\u0027oosteresch","city":"DWINGELOO","type_camping":"1","facilities":null,"address":null}},{"id":"ff172331-1faf-425b-9a21-1f7ad4fe49e2","geometry":{"coordinates":[6.3068,52.8989],"type":"Point"},"properties":{"name":"de goede weide recreatie","city":"OUDE WILLEM","type_camping":"2","facilities":null,"address":null}},{"id":"eba29555-f552-4f37-8f7a-d41ba52022e0","geometry":{"coordinates":[6.5042,52.8161],"type":"Point"},"properties":{"name":"camping westenenk","city":"WIJSTER","type_camping":"2","facilities":null,"address":null}},{"id":"7dbcdf09-b6f4-430d-bac6-54d26cb81cff","geometry":{"coordinates":[6.5606,52.7233],"type":"Point"},"properties":{"name":"camping de groene halte","city":"NIEUWEROORD","type_camping":"2","facilities":null,"address":null}},{"id":"cd0b7539-c460-4384-822e-b43fd30e432b","geometry":{"coordinates":[6.61,53.0357],"type":"Point"},"properties":{"name":"camping appelo\u0027s farm","city":"TAARLO","type_camping":"2","facilities":null,"address":null}},{"id":"7cfbf0e1-3f2a-4b77-a53b-4eca85894620","geometry":{"coordinates":[6.7182,52.8411],"type":"Point"},"properties":{"name":"camping goed vertoef","city":"WEZUPERBRUG","type_camping":"0","facilities":null,"address":null}},{"id":"bd5941ed-f305-42db-b7e7-5b0af41f6a68","geometry":{"coordinates":[6.8071,52.6736],"type":"Point"},"properties":{"name":"camping buitenleven","city":"STIELTJESKANAAL","type_camping":"2","facilities":null,"address":null}},{"id":"afc73d89-5227-45d7-83bf-c0af7218df55","geometry":{"coordinates":[5.4212,52.0514],"type":"Point"},"properties":{"name":"recreatie en vakantieverblijf meck","city":"MAARSBERGEN","type_camping":"2","facilities":null,"address":null}},{"id":"747aa5bc-8eb0-4d90-8810-71c3d62cd461","geometry":{"coordinates":[4.7235,52.1574],"type":"Point"},"properties":{"name":"minicamping de nachtzwaluw","city":"TER AAR","type_camping":"2","facilities":null,"address":null}},{"id":"09118e44-8762-48f3-823b-14c07f1aae61","geometry":{"coordinates":[4.8099,52.8258],"type":"Point"},"properties":{"name":"camping oudesluis","city":"OUDESLUIS","type_camping":"2","facilities":null,"address":null}},{"id":"1a6cc8d4-49ab-4226-9d64-8060748228bf","geometry":{"coordinates":[4.7746,52.1452],"type":"Point"},"properties":{"name":"r.n. schilperoort","city":"NIEUWKOOP","type_camping":"1","facilities":null,"address":null}},{"id":"c4fce7d0-9e13-4265-827e-1c199a7aaeae","geometry":{"coordinates":[4.9774,52.5601],"type":"Point"},"properties":{"name":"a. frikkee","city":"OOSTHUIZEN","type_camping":"0","facilities":null,"address":null}},{"id":"df5d7e82-01df-49f0-8842-7c25f7e4b42e","geometry":{"coordinates":[4.7152,52.786],"type":"Point"},"properties":{"name":"minicamping het baken","city":"SINT MAARTENSBRUG","type_camping":"0","facilities":null,"address":null}},{"id":"b0670c9d-f9e6-418f-8729-27c22d03b082","geometry":{"coordinates":[4.6874,52.5635],"type":"Point"},"properties":{"name":"minicamping de westert","city":"LIMMEN / CASTRICUM","type_camping":"0","facilities":null,"address":null}},{"id":"27ddff83-3466-49de-a7ae-aeb3ebbbb6b6","geometry":{"coordinates":[4.6991,52.7428],"type":"Point"},"properties":{"name":"minicamping de horizon","city":"BURGERBRUG","type_camping":"2","facilities":null,"address":null}},{"id":"3a52596c-ad00-4569-99ae-e61f5f042945","geometry":{"coordinates":[4.8707,51.8921],"type":"Point"},"properties":{"name":"camping het salamandertje","city":"OTTOLAND","type_camping":"2","facilities":null,"address":null}},{"id":"e1a7ffdb-d8bc-47e0-8ff0-27327f53d04d","geometry":{"coordinates":[4.1948,51.8135],"type":"Point"},"properties":{"name":"camping zonnehoeve","city":"OUDENHOORN","type_camping":"2","facilities":null,"address":null}},{"id":"9b755f64-cf00-4d0d-aeb3-9dd8f52ef22d","geometry":{"coordinates":[4.765,52.6026],"type":"Point"},"properties":{"name":"prins hendrik bed \u0026 breakfast","city":"ZUIDSCHERMER","type_camping":"1","facilities":null,"address":null}},{"id":"f36f73a8-8393-454d-9118-494d51ac7cf3","geometry":{"coordinates":[4.9523,52.8428],"type":"Point"},"properties":{"name":"camping onder de dam","city":"SLOOTDORP","type_camping":"0","facilities":null,"address":null}},{"id":"9f4212a2-a2bc-4a98-83ea-6fbdac2d8289","geometry":{"coordinates":[5.0657,52.7268],"type":"Point"},"properties":{"name":"minicamping valkenhof","city":"OOSTWOUD","type_camping":"2","facilities":null,"address":null}},{"id":"ae6c8adc-261e-4d65-a348-4bc620e0f418","geometry":{"coordinates":[4.9341,52.7261],"type":"Point"},"properties":{"name":"minicamping de knotwilg","city":"HOOGWOUD","type_camping":"0","facilities":null,"address":null}},{"id":"5019f7fb-9ce4-43ba-825d-1b15ed3e4fba","geometry":{"coordinates":[4.6776,52.6605],"type":"Point"},"properties":{"name":"boerderij jonker","city":"BERGEN","type_camping":"2","facilities":null,"address":null}},{"id":"04352361-30f7-440c-9c12-e13d8774daa5","geometry":{"coordinates":[6.1969,53.4777],"type":"Point"},"properties":{"name":"recreatieboerderij de oorsprong","city":"SCHIERMONNIKOOG","type_camping":"2","facilities":null,"address":null}},{"id":"c84de8e1-06a9-4d33-b1a9-845fa76c2682","geometry":{"coordinates":[6.7816,52.6718],"type":"Point"},"properties":{"name":"camping kalmpjes an","city":"STIELTJESKANAAL","type_camping":"2","facilities":null,"address":null}},{"id":"158c5cc7-e287-4146-aea4-ee70489a564a","geometry":{"coordinates":[4.9357,51.898],"type":"Point"},"properties":{"name":"minicamping giessenwaard","city":"NOORDELOOS","type_camping":"0","facilities":null,"address":null}},{"id":"7189cb03-006e-45cd-8398-02d4355c5848","geometry":{"coordinates":[6.3375,52.5226],"type":"Point"},"properties":{"name":"svr-camping de stuwe","city":"DALFSEN","type_camping":"0","facilities":null,"address":null}},{"id":"5d4ad6bf-592d-407c-bba9-13499b0deda5","geometry":{"coordinates":[4.3039,51.675],"type":"Point"},"properties":{"name":"camping kastanjehoeve.go","city":"ACHTHUIZEN","type_camping":"2","facilities":null,"address":null}},{"id":"a30e6cae-b722-4165-8be1-7621fef96f09","geometry":{"coordinates":[3.8874,51.8008],"type":"Point"},"properties":{"name":"van huizen","city":"OUDDORP","type_camping":"0","facilities":null,"address":null}},{"id":"b0b6f1fa-38f2-4ab3-bc14-434b42b8ec34","geometry":{"coordinates":[4.2697,51.7001],"type":"Point"},"properties":{"name":"camping de lage werf","city":"DEN BOMMEL","type_camping":"2","facilities":null,"address":null}},{"id":"e09d504e-ad94-4a2e-9c6f-82dd32b2b434","geometry":{"coordinates":[4.4122,52.1058],"type":"Point"},"properties":{"name":"camping noorthey","city":"LEIDSCHENDAM","type_camping":"0","facilities":null,"address":null}},{"id":"a281ee9d-2fd5-426a-a9d5-5d6a4be246b4","geometry":{"coordinates":[3.5163,51.514],"type":"Point"},"properties":{"name":"minicamping \"bijsterveld\"","city":"MELISKERKE","type_camping":"0","facilities":null,"address":null}},{"id":"d1b4b9a0-d001-4906-892b-7fa1731aed84","geometry":{"coordinates":[6.7265,52.4264],"type":"Point"},"properties":{"name":"camping de kraai","city":"GEESTEREN (OV)","type_camping":"2","facilities":null,"address":null}},{"id":"bdb07f98-1533-4845-a649-1a4e07716bca","geometry":{"coordinates":[6.3422,52.4518],"type":"Point"},"properties":{"name":"camping de vos","city":"LEMELERVELD","type_camping":"2","facilities":null,"address":null}},{"id":"c3f68cd0-0eb6-47c6-8a0c-f83a9da950f2","geometry":{"coordinates":[6.6864,52.3294],"type":"Point"},"properties":{"name":"camping erve henderikshoeve","city":"BORNERBROEK","type_camping":"2","facilities":null,"address":null}},{"id":"fa630ad9-f54d-4fac-bec4-e6b1c7b40bea","geometry":{"coordinates":[4.6381,52.6102],"type":"Point"},"properties":{"name":"camping de bleek","city":"EGMOND AAN DEN HOEF","type_camping":"0","facilities":null,"address":null}},{"id":"d078be96-6701-4ed8-a7bc-bb488ad7a152","geometry":{"coordinates":[4.3054,51.9705],"type":"Point"},"properties":{"name":"camping het zonneveld","city":"SCHIPLUIDEN","type_camping":"2","facilities":null,"address":null}},{"id":"17e70921-f2f8-4ecd-adb7-2ff8b9b36d6d","geometry":{"coordinates":[4.9209,51.8473],"type":"Point"},"properties":{"name":"kweetal landscheiding","city":"SCHELLUINEN","type_camping":"2","facilities":null,"address":null}},{"id":"fdda0e45-d121-4181-ae0d-e56a535976d1","geometry":{"coordinates":[4.5448,52.1412],"type":"Point"},"properties":{"name":"boerderij dijkzicht","city":"LEIDERDORP","type_camping":"0","facilities":null,"address":null}},{"id":"82ed28d2-3bd4-453d-ad55-1cc57c5f82c0","geometry":{"coordinates":[4.7973,51.87],"type":"Point"},"properties":{"name":"b\u0026b familie vos","city":"BLESKENSGRAAF","type_camping":"1","facilities":null,"address":null}},{"id":"d13f6499-0c12-4bfd-be86-a4e6a112cfa1","geometry":{"coordinates":[4.7877,52.0023],"type":"Point"},"properties":{"name":"camperplaats aantjes-blokhuis","city":"HAASTRECHT","type_camping":"0","facilities":null,"address":null}},{"id":"98de4c1a-f7f1-44b1-ba01-2e3e916560b6","geometry":{"coordinates":[4.8445,51.9616],"type":"Point"},"properties":{"name":"camperplaats vlisterhoeve","city":"VLIST","type_camping":"0","facilities":null,"address":null}},{"id":"d5dfb3a4-2f57-4b6e-947e-8865491bcb8c","geometry":{"coordinates":[6.751,52.4317],"type":"Point"},"properties":{"name":"reensboer recreatie","city":"GEESTEREN","type_camping":"2","facilities":null,"address":null}},{"id":"c8531c46-8f74-4088-b72b-91a5596f2b82","geometry":{"coordinates":[4.6664,52.0859],"type":"Point"},"properties":{"name":"camperplaats \u0027de scheve schoffel\u0027","city":"BOSKOOP","type_camping":"0","facilities":null,"address":null}},{"id":"a5d76ee9-41e0-4025-b68b-958a4cd83a93","geometry":{"coordinates":[6.6464,52.2358],"type":"Point"},"properties":{"name":"camping de broak","city":"AMBT DELDEN","type_camping":"2","facilities":null,"address":null}},{"id":"d7bf44e1-9a21-46ec-822b-e2ad728ed401","geometry":{"coordinates":[6.8032,52.4324],"type":"Point"},"properties":{"name":"erve snieder","city":"MANDER / OOTMARSUM","type_camping":"0","facilities":null,"address":null}},{"id":"cd0139e0-dcb7-4193-bb6a-82b10bfb6b1e","geometry":{"coordinates":[6.9832,52.3213],"type":"Point"},"properties":{"name":"camping sproakstee","city":"DE LUTTE","type_camping":"2","facilities":null,"address":null}},{"id":"f1850262-ba57-4a8f-b3ca-f30c0e3fc409","geometry":{"coordinates":[5.0503,52.6857],"type":"Point"},"properties":{"name":"familiecamping molenwurf","city":"WOGNUM","type_camping":"2","facilities":null,"address":null}},{"id":"df2200b0-5536-4eaf-b0ae-e71d47501a5e","geometry":{"coordinates":[5.022,52.7238],"type":"Point"},"properties":{"name":"camping de wateringe","city":"ABBEKERK","type_camping":"0","facilities":null,"address":null}},{"id":"c001abbd-7917-48b7-abf8-69096f8d5347","geometry":{"coordinates":[4.7525,52.5864],"type":"Point"},"properties":{"name":"camping de boekel","city":"AKERSLOOT","type_camping":"0","facilities":null,"address":null}},{"id":"c17ecddc-3301-40e3-a958-eb51a3b2e30c","geometry":{"coordinates":[4.8548,52.8879],"type":"Point"},"properties":{"name":"camping de tulpenweide","city":"BREEZAND","type_camping":"2","facilities":null,"address":null}},{"id":"37295a15-8f70-483b-9bba-6993e10eb1bb","geometry":{"coordinates":[4.8819,52.6624],"type":"Point"},"properties":{"name":"camping de rozenbottel","city":"HENSBROEK","type_camping":"2","facilities":null,"address":null}},{"id":"1239a6f3-4da1-4e9e-aa4b-65baecbb9e4f","geometry":{"coordinates":[4.6654,52.6268],"type":"Point"},"properties":{"name":"camping de tuintjes","city":"EGMOND AAN DEN HOEF","type_camping":"0","facilities":null,"address":null}},{"id":"2bd44325-0296-4dc7-a786-c039f721c687","geometry":{"coordinates":[4.6743,52.5631],"type":"Point"},"properties":{"name":"minicamping de tienmorgen","city":"LIMMEN","type_camping":"0","facilities":null,"address":null}},{"id":"ef352539-803e-4b5a-a4df-a829b694c426","geometry":{"coordinates":[4.9616,52.7251],"type":"Point"},"properties":{"name":"camping de gouw","city":"HOOGWOUD","type_camping":"0","facilities":null,"address":null}},{"id":"ec398f04-8a51-4f4f-9a4d-f1718b21068e","geometry":{"coordinates":[4.716,52.806],"type":"Point"},"properties":{"name":"zomerhuisje eyking","city":"SCHAGERBRUG","type_camping":"1","facilities":null,"address":null}},{"id":"78386ec9-c9ce-48bd-afcc-9f1603864cbd","geometry":{"coordinates":[4.1939,51.6967],"type":"Point"},"properties":{"name":"camping fase","city":"OUDE-TONGE","type_camping":"0","facilities":null,"address":null}},{"id":"d0d96ec2-2cd9-44e7-8639-5e63ee0a750d","geometry":{"coordinates":[4.7221,51.8953],"type":"Point"},"properties":{"name":"camping landhoeve","city":"NIEUW-LEKKERLAND","type_camping":"0","facilities":null,"address":null}},{"id":"93b1a439-e5dd-420f-b904-a7a9c6be199c","geometry":{"coordinates":[4.4966,52.2331],"type":"Point"},"properties":{"name":"boerderijcamping jachtlust","city":"VOORHOUT","type_camping":"2","facilities":null,"address":null}},{"id":"67db2df1-3508-4da7-ab7e-5bc670ffc771","geometry":{"coordinates":[4.5033,52.1106],"type":"Point"},"properties":{"name":"camping hoeve rustdam","city":"ZOETERWOUDE","type_camping":"0","facilities":null,"address":null}},{"id":"5e297818-0471-4f76-a3a9-a47fcbaacccf","geometry":{"coordinates":[4.7526,51.8569],"type":"Point"},"properties":{"name":"campererf farm nescio","city":"BLESKENSGRAAF","type_camping":"0","facilities":null,"address":null}},{"id":"572be64e-e0d5-4a3e-9d0b-f0db72774ebb","geometry":{"coordinates":[4.093,51.8565],"type":"Point"},"properties":{"name":"midicamping van der burgh","city":"ROCKANJE","type_camping":"2","facilities":null,"address":null}},{"id":"e1170bfc-e2ab-4bbf-bc91-5fd924893ebc","geometry":{"coordinates":[4.7697,52.1129],"type":"Point"},"properties":{"name":"camping de hollandse boerderij","city":"BODEGRAVEN","type_camping":"2","facilities":null,"address":null}},{"id":"df739137-4a6c-4fea-8bf5-6228c9991010","geometry":{"coordinates":[4.8298,52.0173],"type":"Point"},"properties":{"name":"camping bij groen geluk","city":"HEKENDORP","type_camping":"2","facilities":null,"address":null}},{"id":"8508868c-3af3-43a5-b643-d90b81dee5d8","geometry":{"coordinates":[6.3823,52.5316],"type":"Point"},"properties":{"name":"svr-camping emsland","city":"OMMEN","type_camping":"2","facilities":null,"address":null}},{"id":"53c8b4e3-cb2f-4a1c-8659-3470d2e509a0","geometry":{"coordinates":[4.8297,52.7485],"type":"Point"},"properties":{"name":"camping de boerenzwaluw","city":"ZIJDEWIND","type_camping":"0","facilities":null,"address":null}},{"id":"4b69059d-612a-4b54-aa51-9669c0f19228","geometry":{"coordinates":[4.7174,52.6569],"type":"Point"},"properties":{"name":"minicamping bergen nh","city":"BERGEN","type_camping":"0","facilities":null,"address":null}},{"id":"e8e3176a-067b-48b6-bcb8-6c14c71a3940","geometry":{"coordinates":[6.974,53.0834],"type":"Point"},"properties":{"name":"camping wel wait","city":"NIEUWE PEKELA","type_camping":"0","facilities":null,"address":null}},{"id":"5936e63c-4511-49be-b73e-b094b3932073","geometry":{"coordinates":[5.5396,53.1478],"type":"Point"},"properties":{"name":"trekkershut it ald bargehok","city":"TZUM","type_camping":"1","facilities":null,"address":null}},{"id":"552bc23c-86b8-46d9-a2fe-4ec6313a413f","geometry":{"coordinates":[3.5274,51.5209],"type":"Point"},"properties":{"name":"camping krijger","city":"MELISKERKE","type_camping":"2","facilities":null,"address":null}},{"id":"01e73f6b-00da-4288-ab5d-8b9406f00189","geometry":{"coordinates":[3.5825,51.4945],"type":"Point"},"properties":{"name":"minicamping pitteperk","city":"KOUDEKERKE","type_camping":"2","facilities":null,"address":null}},{"id":"620d28d0-246d-47c8-98dd-b8f51ba828b7","geometry":{"coordinates":[3.4718,51.3616],"type":"Point"},"properties":{"name":"minicamping luteijn","city":"NIEUWVLIET","type_camping":"0","facilities":null,"address":null}},{"id":"34a3b269-2bb1-49ed-95ca-e3e52c4d6732","geometry":{"coordinates":[6.1129,52.9192],"type":"Point"},"properties":{"name":"linde hoeve","city":"OLDEBERKOOP","type_camping":"1","facilities":null,"address":null}},{"id":"430b2e06-b8f3-4a75-8418-cf4147fd3e39","geometry":{"coordinates":[5.8763,53.1489],"type":"Point"},"properties":{"name":"camping de wartenster","city":"WARTEN","type_camping":"2","facilities":null,"address":null}},{"id":"b5321312-ceb8-455f-9ee7-07ac8753482b","geometry":{"coordinates":[6.0972,53.2419],"type":"Point"},"properties":{"name":"camping de wedze","city":"TWIJZEL","type_camping":"2","facilities":null,"address":null}},{"id":"11a7c98f-14e8-4ea9-a6a3-5914328d37a2","geometry":{"coordinates":[5.9439,53.2963],"type":"Point"},"properties":{"name":"camping tjaerdastate","city":"RINSUMAGEAST","type_camping":"2","facilities":null,"address":null}},{"id":"d4e7329f-b542-4322-a476-0173b2910f05","geometry":{"coordinates":[5.5217,53.0742],"type":"Point"},"properties":{"name":"boerencamping half-hichtum","city":"BOLSWARD","type_camping":"2","facilities":null,"address":null}},{"id":"c95ac77f-8f76-4c18-ac6b-32789eba035f","geometry":{"coordinates":[5.5426,53.0902],"type":"Point"},"properties":{"name":"aylvapolder skieppebuorkerij","city":"BURGWERD","type_camping":"0","facilities":null,"address":null}},{"id":"7b806f29-b26d-4bfc-a9ca-733a344006ff","geometry":{"coordinates":[5.5113,52.8545],"type":"Point"},"properties":{"name":"kampeerboerderij groen","city":"OUDEMIRDUM","type_camping":"2","facilities":null,"address":null}},{"id":"44eee715-1c96-49ac-8bb2-671cf3cd5b1a","geometry":{"coordinates":[5.6165,52.8912],"type":"Point"},"properties":{"name":"vakantiewoning de coehoorn","city":"WIJCKEL","type_camping":"1","facilities":null,"address":null}},{"id":"32e4a809-8eb0-4bdf-92f4-0f07d6b32f8a","geometry":{"coordinates":[6.1017,53.1475],"type":"Point"},"properties":{"name":"ladure watersport en recreatie","city":"ROTTEVALLE BIJ DRACHTEN","type_camping":"0","facilities":null,"address":null}},{"id":"3b805bd8-e460-4e30-a601-ecc5d9c1143e","geometry":{"coordinates":[5.8341,53.1094],"type":"Point"},"properties":{"name":"camping opperbird","city":"GROU","type_camping":"0","facilities":null,"address":null}},{"id":"7ac9c3f2-24ae-40ad-9531-de6cf75019d1","geometry":{"coordinates":[6.1668,53.2809],"type":"Point"},"properties":{"name":"minicamping \u0027t achterom","city":"KOLLUM","type_camping":"0","facilities":null,"address":null}},{"id":"b62d15e1-3d07-446e-badc-683240a484c7","geometry":{"coordinates":[6.2213,53.2642],"type":"Point"},"properties":{"name":"minicamping de grutte earen","city":"BURUM","type_camping":"2","facilities":null,"address":null}},{"id":"8e801cd8-3dcc-497d-914a-393470deac66","geometry":{"coordinates":[6.3208,53.0659],"type":"Point"},"properties":{"name":"fraai minicamping - b\u0026b - theetuin","city":"HAULERWIJK","type_camping":"2","facilities":null,"address":null}},{"id":"424b1bc6-ffe3-4746-8c89-bed9e8fa74fc","geometry":{"coordinates":[6.1864,53.0229],"type":"Point"},"properties":{"name":"camping de oude trambrug","city":"HOORNSTERZWAAG","type_camping":"0","facilities":null,"address":null}},{"id":"184fa8ce-9e3d-4ee4-8dae-c6cbbae639e2","geometry":{"coordinates":[6.1857,53.2004],"type":"Point"},"properties":{"name":"minicamping de weidewagen","city":"SURHUIZUM","type_camping":"2","facilities":null,"address":null}},{"id":"d83d51ce-6ba1-4394-bdb4-9c173f0628d2","geometry":{"coordinates":[6.0421,53.2364],"type":"Point"},"properties":{"name":"camping \u0027t heidestek","city":"TWIJZELERHEIDE","type_camping":"0","facilities":null,"address":null}},{"id":"5d1728f9-8c18-45ab-82a7-c1e78f7cd71b","geometry":{"coordinates":[5.5988,52.8585],"type":"Point"},"properties":{"name":"boerderijcamping \"de groninger\"","city":"NIJEMIRDUM","type_camping":"0","facilities":null,"address":null}},{"id":"c4c74264-17c5-4606-9438-de66d43724ac","geometry":{"coordinates":[5.9717,53.347],"type":"Point"},"properties":{"name":"camping \u0027de terp\u0027","city":"HIAURE","type_camping":"2","facilities":null,"address":null}},{"id":"60242900-55d5-4c5e-b46e-a8ff85ce58b0","geometry":{"coordinates":[6.2343,53.0936],"type":"Point"},"properties":{"name":"camping de sieghorst","city":"SIEGERSWOUDE","type_camping":"2","facilities":null,"address":null}},{"id":"820c83a6-1aa6-4767-af5d-8237ac454db6","geometry":{"coordinates":[5.289,53.39],"type":"Point"},"properties":{"name":"chalet hoeve \u0027t noord","city":"TERSCHELLING MIDSLAND","type_camping":"1","facilities":null,"address":null}},{"id":"934233e9-7078-4fbe-84af-9c4cfbf22279","geometry":{"coordinates":[5.6326,53.0764],"type":"Point"},"properties":{"name":"camping de finne","city":"REAHÛS","type_camping":"2","facilities":null,"address":null}},{"id":"2ee7e224-a785-4985-9e67-339b4e217c86","geometry":{"coordinates":[5.5954,52.8938],"type":"Point"},"properties":{"name":"minicamping de jachtlusthoeve","city":"WIJCKEL","type_camping":"0","facilities":null,"address":null}},{"id":"4c73cdf1-a63b-402d-8181-620e25710964","geometry":{"coordinates":[6.463,52.2847],"type":"Point"},"properties":{"name":"boerencamping de elshof","city":"HOLTEN","type_camping":"2","facilities":null,"address":null}},{"id":"13cfa50e-2e21-4f1f-a20d-4297ac5eac97","geometry":{"coordinates":[6.0167,52.6255],"type":"Point"},"properties":{"name":"camperplaats vlaktezicht","city":"GENEMUIDEN","type_camping":"0","facilities":null,"address":null}},{"id":"7fa94c81-8a5d-42d6-a36b-08e8fa731646","geometry":{"coordinates":[6.5074,52.4437],"type":"Point"},"properties":{"name":"vakantiehuis het assenhoekje","city":"DEN HAM","type_camping":"1","facilities":null,"address":null}},{"id":"1b18d835-c476-4a3a-b189-553148463313","geometry":{"coordinates":[6.2473,52.3601],"type":"Point"},"properties":{"name":"minicamping de zwerver","city":"RAALTE","type_camping":"2","facilities":null,"address":null}},{"id":"7cf5d17d-2950-4521-921f-8993436b6f6f","geometry":{"coordinates":[6.1242,52.4698],"type":"Point"},"properties":{"name":"camping \u0027t hofje van hoog zuthem","city":"ZWOLLE","type_camping":"0","facilities":null,"address":null}},{"id":"3a0497f7-056e-4c4a-b0ef-d458e0ecf117","geometry":{"coordinates":[6.1221,52.3577],"type":"Point"},"properties":{"name":"camping het klaverblad","city":"OLST","type_camping":"2","facilities":null,"address":null}},{"id":"34e4d395-fa70-4fbb-aef5-58696bb74a22","geometry":{"coordinates":[3.8971,51.7127],"type":"Point"},"properties":{"name":"minicamping duivendijke","city":"KERKWERVE / BROUWERSHAVEN","type_camping":"2","facilities":null,"address":null}},{"id":"3514cd27-f5ec-4b60-af48-d7f035f11d2c","geometry":{"coordinates":[3.8836,51.6695],"type":"Point"},"properties":{"name":"camping \"de brashoeve\"","city":"KERKWERVE","type_camping":"2","facilities":null,"address":null}},{"id":"9df0b67d-2956-4bd4-86fa-58d20d1ac2fa","geometry":{"coordinates":[6.2372,52.9237],"type":"Point"},"properties":{"name":"camping de bosfluiter","city":"BOIJL","type_camping":"0","facilities":null,"address":null}},{"id":"6508245a-330b-4b62-a7d3-237f98a0dc90","geometry":{"coordinates":[6.1245,53.2031],"type":"Point"},"properties":{"name":"minicamping \"het schuttersplek\"","city":"DROGEHAM","type_camping":"2","facilities":null,"address":null}},{"id":"77bfebaa-dec4-4f3e-aeb8-d08a22623081","geometry":{"coordinates":[6.1889,52.886],"type":"Point"},"properties":{"name":"camping de hazehof","city":"BOIJL","type_camping":"2","facilities":null,"address":null}},{"id":"af85c029-5060-497a-b851-1fdf1342ea59","geometry":{"coordinates":[6.5288,52.395],"type":"Point"},"properties":{"name":"recreatiepark de bonte specht","city":"HOGE HEXEL","type_camping":"2","facilities":null,"address":null}},{"id":"3f9dec93-4d5b-4813-a34e-5fb2c80db943","geometry":{"coordinates":[6.5684,52.5364],"type":"Point"},"properties":{"name":"camping de kleve","city":"DIFFELEN","type_camping":"2","facilities":null,"address":null}},{"id":"111cc773-276c-44e0-8819-43ea4b6ba1f1","geometry":{"coordinates":[3.912,51.6591],"type":"Point"},"properties":{"name":"minicamping \u0027t uulof","city":"ZIERIKZEE","type_camping":"0","facilities":null,"address":null}},{"id":"0421aeb7-bd0a-4a2d-9751-b966daa2cfd2","geometry":{"coordinates":[3.5896,51.4942],"type":"Point"},"properties":{"name":"boerderijcamping \u0027t hof noord ambacht","city":"MIDDELBURG","type_camping":"0","facilities":null,"address":null}},{"id":"1163ba5f-3aef-4445-99e6-9b2fcd5e9d58","geometry":{"coordinates":[4.1903,51.4133],"type":"Point"},"properties":{"name":"tuinderij hofstede reigersberg","city":"RILLAND","type_camping":"2","facilities":null,"address":null}},{"id":"315bb528-2203-4ead-8752-7d7ee30562a8","geometry":{"coordinates":[3.932,51.2542],"type":"Point"},"properties":{"name":"mini-boerderijcamping hof van axel","city":"AXEL","type_camping":"2","facilities":null,"address":null}},{"id":"f7b9c217-fafa-4f3d-ada6-443529735292","geometry":{"coordinates":[3.951,51.3221],"type":"Point"},"properties":{"name":"camping tuinenburg","city":"ZAAMSLAGVEER","type_camping":"2","facilities":null,"address":null}},{"id":"d534d059-8cb5-4066-b890-7707caa4ddaf","geometry":{"coordinates":[3.7685,51.2867],"type":"Point"},"properties":{"name":"camping bij boonman","city":"PHILIPPINE","type_camping":"0","facilities":null,"address":null}},{"id":"8a608e6a-bf11-4156-8978-306ca12a3b41","geometry":{"coordinates":[3.7107,51.4878],"type":"Point"},"properties":{"name":"minicamping dobbelaar","city":"LEWEDORP","type_camping":"2","facilities":null,"address":null}},{"id":"118a4453-3a39-4090-90d8-3bd33c7b791a","geometry":{"coordinates":[3.9362,51.7073],"type":"Point"},"properties":{"name":"minicamping kristalmaire","city":"ZONNEMAIRE","type_camping":"0","facilities":null,"address":null}},{"id":"104969d7-a11f-48c3-bbe5-333f3181d091","geometry":{"coordinates":[3.5672,51.5313],"type":"Point"},"properties":{"name":"recreatieboerderij \u0027t munnikenhof","city":"GRIJPSKERKE","type_camping":"2","facilities":null,"address":null}},{"id":"749df94e-847e-416c-b789-2b484efedaaf","geometry":{"coordinates":[5.8475,51.697],"type":"Point"},"properties":{"name":"boerderijcamping de cinquant","city":"HAPS","type_camping":"2","facilities":null,"address":null}},{"id":"a9f1f2dd-fbd1-4066-a6df-7e436ee13288","geometry":{"coordinates":[5.4749,51.6622],"type":"Point"},"properties":{"name":"minicamping bij ons achter","city":"HEESWIJK-DINTHER","type_camping":"2","facilities":null,"address":null}},{"id":"705bce4c-09d0-44fb-ac2b-e069ef712b3a","geometry":{"coordinates":[6.0278,53.0642],"type":"Point"},"properties":{"name":"natuur kampeerterrein op eigen weg","city":"NIJ BEETS","type_camping":"0","facilities":null,"address":null}},{"id":"e17a195f-2097-40c5-8360-09045704de27","geometry":{"coordinates":[5.8648,52.9923],"type":"Point"},"properties":{"name":"camping \"lyts mar smuk\"","city":"VEGELINSOORD","type_camping":"2","facilities":null,"address":null}},{"id":"730e3fef-105a-481f-9e36-2d937399b6fe","geometry":{"coordinates":[5.9712,53.0886],"type":"Point"},"properties":{"name":"boerderijcamping stoker","city":"DE VEENHOOP","type_camping":"2","facilities":null,"address":null}},{"id":"e54811a1-b566-4258-97de-ab0df97093b4","geometry":{"coordinates":[5.9845,53.1256],"type":"Point"},"properties":{"name":"camping \"de stjelp\"","city":"OUDEGA / SMALLINGERLAND","type_camping":"2","facilities":null,"address":null}},{"id":"a7bf0ebb-c520-441d-be66-b956f446c474","geometry":{"coordinates":[5.4553,53.121],"type":"Point"},"properties":{"name":"minicamping de nije trije","city":"PINGJUM","type_camping":"2","facilities":null,"address":null}},{"id":"14e2be3b-f8c4-4ac6-b01b-754f90d20cfe","geometry":{"coordinates":[6.2676,53.0636],"type":"Point"},"properties":{"name":"minicamping kivafarm / de groene oase","city":"BAKKEVEEN","type_camping":"2","facilities":null,"address":null}},{"id":"ca6f6ea7-6b63-499f-91c7-87cd6fd6db5f","geometry":{"coordinates":[5.7851,53.0354],"type":"Point"},"properties":{"name":"minicamping kalsbeek","city":"TERHERNE","type_camping":"0","facilities":null,"address":null}},{"id":"a16bf07d-1f1e-424e-8651-6d8f01cdf016","geometry":{"coordinates":[6.0885,53.3037],"type":"Point"},"properties":{"name":"camping hammerslag","city":"WESTERGEEST","type_camping":"2","facilities":null,"address":null}},{"id":"9afe9ef9-9a0d-458f-b81b-16d3c3057aba","geometry":{"coordinates":[5.9696,53.3218],"type":"Point"},"properties":{"name":"minicamping en theetuin aldsyl","city":"BORNWIRD","type_camping":"0","facilities":null,"address":null}},{"id":"2b727a85-5103-4c80-a736-2f891405e4cc","geometry":{"coordinates":[6.1301,53.3775],"type":"Point"},"properties":{"name":"camperpark it tún-hûs","city":"EANJUM","type_camping":"2","facilities":null,"address":null}},{"id":"010235ab-3b94-4498-aef5-3a2c4c0235c3","geometry":{"coordinates":[6.254,53.0485],"type":"Point"},"properties":{"name":"camping appelhofke","city":"WASKEMEER","type_camping":"0","facilities":null,"address":null}},{"id":"06c04edf-8c55-4c15-a155-3d54bc365c70","geometry":{"coordinates":[6.2767,53.0651],"type":"Point"},"properties":{"name":"minicamping de huifkar","city":"BAKKEVEEN","type_camping":"2","facilities":null,"address":null}},{"id":"cc70a3c7-fe03-4073-b7f3-b8490f0186b6","geometry":{"coordinates":[5.5369,52.9591],"type":"Point"},"properties":{"name":"boerderijcamping van netten","city":"GAASTMEER","type_camping":"0","facilities":null,"address":null}},{"id":"310f448b-7b14-4d45-93c4-6471fe3a3e09","geometry":{"coordinates":[6.3203,52.2317],"type":"Point"},"properties":{"name":"camping de hoge moat","city":"BATHMEN","type_camping":"2","facilities":null,"address":null}},{"id":"f61b3c1d-cbb6-4997-90a9-21eb0c4e1c04","geometry":{"coordinates":[5.982,52.7143],"type":"Point"},"properties":{"name":"minicamping de hendrikahoeve","city":"BLOKZIJL","type_camping":"0","facilities":null,"address":null}},{"id":"7066e099-d4fa-462e-b500-76a93923f891","geometry":{"coordinates":[6.4478,52.2787],"type":"Point"},"properties":{"name":"camping ideaal","city":"HOLTEN","type_camping":"2","facilities":null,"address":null}},{"id":"b2dbab4b-38a4-4afb-8f4e-cc3c181ef6bf","geometry":{"coordinates":[6.7779,52.8233],"type":"Point"},"properties":{"name":"kampeerboerderij de riegheide","city":"SCHOONOORD","type_camping":"0","facilities":null,"address":null}},{"id":"8568d135-020c-4f13-9bfd-482c05c6b116","geometry":{"coordinates":[6.3854,52.7605],"type":"Point"},"properties":{"name":"camping de berghoeve","city":"RUINEN","type_camping":"2","facilities":null,"address":null}},{"id":"1fd9c481-abc5-49ec-afc6-f646af7f9cde","geometry":{"coordinates":[6.7748,52.8855],"type":"Point"},"properties":{"name":"vakantiehuis in drenthe","city":"EESERGROEN","type_camping":"1","facilities":null,"address":null}},{"id":"bd39a948-34f8-4469-9a7f-d97f39f0ef7e","geometry":{"coordinates":[6.4821,52.9004],"type":"Point"},"properties":{"name":"minicamping het hijkerveld","city":"HIJKEN","type_camping":"0","facilities":null,"address":null}},{"id":"ef61f327-9e9a-4927-9fe2-cd7ccde67621","geometry":{"coordinates":[6.388,52.5333],"type":"Point"},"properties":{"name":"minicamping boszicht","city":"OMMEN","type_camping":"0","facilities":null,"address":null}},{"id":"a283d0dd-222e-4c43-85ad-77ed60437df3","geometry":{"coordinates":[6.4855,52.3432],"type":"Point"},"properties":{"name":"camping de jonkerhoeve","city":"NIJVERDAL","type_camping":"2","facilities":null,"address":null}},{"id":"e69fb9fa-792e-4529-8150-468ce726d6a2","geometry":{"coordinates":[5.2664,51.312],"type":"Point"},"properties":{"name":"camping de negende zaeligheyt","city":"BERGEIJK","type_camping":"2","facilities":null,"address":null}},{"id":"fcd69edf-65e8-4d60-9412-90f2de9f5669","geometry":{"coordinates":[4.3987,51.4853],"type":"Point"},"properties":{"name":"camping \u0027t schouwke","city":"WOUWSE PLANTAGE","type_camping":"0","facilities":null,"address":null}},{"id":"efe7ec9a-206d-4f96-a618-9a4e30480b11","geometry":{"coordinates":[5.653,51.6033],"type":"Point"},"properties":{"name":"minicamping de weidevogel","city":"BOEKEL","type_camping":"2","facilities":null,"address":null}},{"id":"ae4cd8f6-21d3-46df-89b6-e77a8c1fc4d6","geometry":{"coordinates":[4.3932,51.4836],"type":"Point"},"properties":{"name":"camping getaway","city":"WOUWSE PLANTAGE","type_camping":"0","facilities":null,"address":null}},{"id":"073cdd8d-6c73-4429-99ce-4c3ec5c2885d","geometry":{"coordinates":[5.5725,51.5238],"type":"Point"},"properties":{"name":"minicamping rust en ruimte","city":"MARIAHOUT","type_camping":"0","facilities":null,"address":null}},{"id":"03486fe7-d1a5-4630-956d-a54682c0f41c","geometry":{"coordinates":[5.3595,51.6099],"type":"Point"},"properties":{"name":"camping bij boer jos","city":"GEMONDE","type_camping":"2","facilities":null,"address":null}},{"id":"77b7c326-3105-4e46-9b57-ab46b95c1aec","geometry":{"coordinates":[5.1754,51.4014],"type":"Point"},"properties":{"name":"minicamping op de veranda","city":"LAGE MIERDE","type_camping":"0","facilities":null,"address":null}},{"id":"c3b8e5fc-55c2-4882-af1b-19d0a9c91621","geometry":{"coordinates":[5.8979,51.6384],"type":"Point"},"properties":{"name":"minicamping de esrand","city":"SINT ANTHONIS","type_camping":"0","facilities":null,"address":null}},{"id":"d8b2272c-0f7c-4564-b6ea-1f67c0226830","geometry":{"coordinates":[4.3212,51.5635],"type":"Point"},"properties":{"name":"camping \u0026 welness de oudlandse hoeve","city":"STEENBERGEN","type_camping":"2","facilities":null,"address":null}},{"id":"46104fb7-6cc2-4938-9bc2-0e9e331f4a41","geometry":{"coordinates":[5.1894,51.5537],"type":"Point"},"properties":{"name":"camping de lindehoef","city":"MOERGESTEL","type_camping":"2","facilities":null,"address":null}},{"id":"ccb1ceec-66d7-4c46-ae13-25a44107e133","geometry":{"coordinates":[5.5582,51.2869],"type":"Point"},"properties":{"name":"minicamping gravenkasteel","city":"GASTEL","type_camping":"0","facilities":null,"address":null}},{"id":"9cad38c2-c4c8-4271-beb7-90f3ab14a95c","geometry":{"coordinates":[5.8969,51.3983],"type":"Point"},"properties":{"name":"camping de peelkant","city":"HELENAVEEN","type_camping":"0","facilities":null,"address":null}},{"id":"66e66233-cb57-4f4e-a499-f7f445cb5e9c","geometry":{"coordinates":[5.7757,51.6633],"type":"Point"},"properties":{"name":"camping boszicht","city":"WILBERTOORD","type_camping":"2","facilities":null,"address":null}},{"id":"409c41ae-0b16-46e1-b9c3-8141342ae564","geometry":{"coordinates":[5.089,51.7226],"type":"Point"},"properties":{"name":"boerderijcamping de linde","city":"DOEVEREN","type_camping":"2","facilities":null,"address":null}},{"id":"ac47c989-f871-4fec-bd7f-e7602398d0c1","geometry":{"coordinates":[4.3761,51.4388],"type":"Point"},"properties":{"name":"camping costa kabrita","city":"HUIJBERGEN","type_camping":"2","facilities":null,"address":null}},{"id":"e289cad5-a10b-43a4-a77d-a31c4e5ecd27","geometry":{"coordinates":[4.3436,51.5255],"type":"Point"},"properties":{"name":"minicamping de heemshoeve","city":"MOERSTRATEN","type_camping":"0","facilities":null,"address":null}},{"id":"dcae9db2-7eab-453d-8703-16fc39c9c607","geometry":{"coordinates":[5.9745,51.5757],"type":"Point"},"properties":{"name":"camping schaartven","city":"OVERLOON","type_camping":"2","facilities":null,"address":null}},{"id":"826f1e01-c3fa-4a29-b745-510d8252866f","geometry":{"coordinates":[5.2812,51.5227],"type":"Point"},"properties":{"name":"camping de kroon","city":"OIRSCHOT","type_camping":"0","facilities":null,"address":null}},{"id":"ef30376b-e9e8-423a-9137-85b59c2107b7","geometry":{"coordinates":[6.3255,52.2763],"type":"Point"},"properties":{"name":"camping ikkinkshof","city":"OKKENBROEK","type_camping":"0","facilities":null,"address":null}},{"id":"e2672834-c056-4c46-b139-05eb696004be","geometry":{"coordinates":[5.9568,52.6116],"type":"Point"},"properties":{"name":"minicamping de paardeboer","city":"KAMPEN","type_camping":"0","facilities":null,"address":null}},{"id":"f1dbfa0d-fb99-4f4d-a54e-8a9835ca4f1c","geometry":{"coordinates":[6.3727,52.2544],"type":"Point"},"properties":{"name":"de pothaar","city":"BATHMEN","type_camping":"0","facilities":null,"address":null}},{"id":"a92cb480-e613-4223-bfbc-532c09b385b6","geometry":{"coordinates":[6.511,52.6101],"type":"Point"},"properties":{"name":"minicamping \u0027t rheezerend","city":"DEDEMSVAART","type_camping":"0","facilities":null,"address":null}},{"id":"0a1818d0-ba65-411b-88a1-cb4e72d746ca","geometry":{"coordinates":[6.8106,52.4161],"type":"Point"},"properties":{"name":"camping batsjan","city":"TUBBERGEN","type_camping":"2","facilities":null,"address":null}},{"id":"c51934d6-cf2e-4de7-8276-5534390e2e55","geometry":{"coordinates":[6.8391,52.1711],"type":"Point"},"properties":{"name":"camping \u0026 boerderijwinkel \u0027t kippeboertje","city":"ENSCHEDE","type_camping":"2","facilities":null,"address":null}},{"id":"e2e58de7-64f8-4dd8-9512-f33e701adf89","geometry":{"coordinates":[7.0362,52.247],"type":"Point"},"properties":{"name":"camperplaats skop\u0027nboer","city":"OVERDINKEL","type_camping":"0","facilities":null,"address":null}},{"id":"d41ada38-a18b-4d31-b937-59eb91a1ec39","geometry":{"coordinates":[6.8355,52.1379],"type":"Point"},"properties":{"name":"landrijk de reesprong","city":"BUURSE","type_camping":"2","facilities":null,"address":null}},{"id":"e34a04d9-b6f2-4bc2-b968-4c585b95a870","geometry":{"coordinates":[6.6827,52.2439],"type":"Point"},"properties":{"name":"camping het appelnest","city":"AMBT DELDEN","type_camping":"2","facilities":null,"address":null}},{"id":"d2ed1525-1543-4f0d-bd75-83102f0f0a7a","geometry":{"coordinates":[6.5265,52.4934],"type":"Point"},"properties":{"name":"natuurcamping de boerenzwaluw","city":"BEERZERVELD","type_camping":"0","facilities":null,"address":null}},{"id":"7a64fd8a-8460-4739-beaf-c824f32161ed","geometry":{"coordinates":[5.2198,51.7661],"type":"Point"},"properties":{"name":"boerderijcamping de spijken","city":"AMMERZODEN","type_camping":"2","facilities":null,"address":null}},{"id":"4955fb91-729b-46a7-b8df-31a0711f4df0","geometry":{"coordinates":[6.2177,52.062],"type":"Point"},"properties":{"name":"boerderij de vrije geest","city":"TOLDIJK","type_camping":"2","facilities":null,"address":null}},{"id":"4a6912cd-079b-45fe-9b5d-967b1b8a3416","geometry":{"coordinates":[6.5083,52.0512],"type":"Point"},"properties":{"name":"camping broekhorst","city":"RUURLO","type_camping":"2","facilities":null,"address":null}},{"id":"de7b3dcf-e588-4338-9b5a-a27f155c57bc","geometry":{"coordinates":[6.1471,52.0579],"type":"Point"},"properties":{"name":"forellenvijver en camping breukink","city":"STEENDEREN","type_camping":"2","facilities":null,"address":null}},{"id":"f3a93e3f-7fe4-409b-8b85-1dde985bcbad","geometry":{"coordinates":[5.9577,51.7952],"type":"Point"},"properties":{"name":"landgoed den heuvel","city":"GROESBEEK","type_camping":"0","facilities":null,"address":null}},{"id":"2014cab1-804d-4cc7-a63b-eae6c0b247ff","geometry":{"coordinates":[5.9927,51.9263],"type":"Point"},"properties":{"name":"minicamping dieker\u0027s hof","city":"LOO","type_camping":"0","facilities":null,"address":null}},{"id":"3b8a6554-bf89-41d6-b9f0-e1871cf1fedf","geometry":{"coordinates":[6.3378,52.0299],"type":"Point"},"properties":{"name":"minicamping \u0027t bosch","city":"ZELHEM","type_camping":"2","facilities":null,"address":null}},{"id":"9c46669f-c3cb-48dd-bfb8-951938ee8f7d","geometry":{"coordinates":[6.7059,52.0889],"type":"Point"},"properties":{"name":"camping koordes","city":"REKKEN / EIBERGEN","type_camping":"0","facilities":null,"address":null}},{"id":"57c0ae31-d21f-4310-a9ab-67bab29acb8c","geometry":{"coordinates":[6.2986,52.1329],"type":"Point"},"properties":{"name":"oude meulenbrugge","city":"WARNSVELD","type_camping":"2","facilities":null,"address":null}},{"id":"b634d277-be1c-4dca-b9b0-160154269993","geometry":{"coordinates":[6.0081,52.1701],"type":"Point"},"properties":{"name":"vakantieverblijf aan \u0027t paradijs","city":"KLARENBEEK","type_camping":"1","facilities":null,"address":null}},{"id":"576ae749-5086-42a2-a474-8a7378bde9ba","geometry":{"coordinates":[5.4924,51.9709],"type":"Point"},"properties":{"name":"camping de limes hoeve","city":"INGEN","type_camping":"2","facilities":null,"address":null}},{"id":"e5c3e523-1853-4cda-bc7c-afdc62103762","geometry":{"coordinates":[5.8873,51.9093],"type":"Point"},"properties":{"name":"de grote bredelaar","city":"ELST","type_camping":"0","facilities":null,"address":null}},{"id":"b62d557e-7f1c-4ab1-ace7-ac7c51325f06","geometry":{"coordinates":[6.0613,52.4079],"type":"Point"},"properties":{"name":"de bankenburg","city":"HEERDE","type_camping":"0","facilities":null,"address":null}},{"id":"486dc107-8166-45a1-95a6-27d14ab1bd80","geometry":{"coordinates":[6.7228,51.9885],"type":"Point"},"properties":{"name":"camping \u0027t paardeweitje","city":"WINTERSWIJK","type_camping":"2","facilities":null,"address":null}},{"id":"e32187b5-249a-40dc-bd4e-42551d3d6d3a","geometry":{"coordinates":[5.5783,51.8363],"type":"Point"},"properties":{"name":"de bankjes","city":"APPELTERN","type_camping":"2","facilities":null,"address":null}},{"id":"f658974f-7958-4fc6-b0ae-28dd8a6e2087","geometry":{"coordinates":[5.9528,51.6271],"type":"Point"},"properties":{"name":"minicamping \u0027t brenneke","city":"SAMBEEK","type_camping":"2","facilities":null,"address":null}},{"id":"20a49bbb-d782-4f34-911f-7c5802307cbb","geometry":{"coordinates":[12.8315,48.2674],"type":"Point"},"properties":{"name":"campingplatz am marktler badesee","city":"MARKTL/INN","type_camping":"2","facilities":null,"address":null}},{"id":"c28712cc-8b59-4f06-867d-ae33c06b6d1f","geometry":{"coordinates":[8.1599,51.9904],"type":"Point"},"properties":{"name":"hof rohmann","city":"HARSEWINKEL","type_camping":"0","facilities":null,"address":null}},{"id":"068162de-0a09-4173-89d3-aed5d6b37bf9","geometry":{"coordinates":[8.1052,48.6247],"type":"Point"},"properties":{"name":"campingplatz grässelmühle","city":"SASBACH","type_camping":"2","facilities":null,"address":null}},{"id":"c5c27c31-a5bb-4966-85f8-2bfd4d7b1437","geometry":{"coordinates":[8.7666,49.4978],"type":"Point"},"properties":{"name":"ferienparadies gönnawein","city":"LAMPENHAIN","type_camping":"1","facilities":null,"address":null}},{"id":"93c49350-8ea6-45e6-811c-5104e1d8ac50","geometry":{"coordinates":[10.1968,52.8754],"type":"Point"},"properties":{"name":"heidecamping gerdehaus","city":"FAßBERG","type_camping":"0","facilities":null,"address":null}},{"id":"31cf947c-f58d-4adc-a1f0-f4ee209d7b5f","geometry":{"coordinates":[6.3535,49.9992],"type":"Point"},"properties":{"name":"camping drei spatzen","city":"UTSCHEID","type_camping":"2","facilities":null,"address":null}},{"id":"fce53bdf-0928-4716-978f-9793eb9561d8","geometry":{"coordinates":[11.886,51.9257],"type":"Point"},"properties":{"name":"camping im baumgarten","city":"BARBY/ OT KLEIN ROSENBURG","type_camping":"2","facilities":null,"address":null}},{"id":"76cb8a6e-aa4c-41d0-a9aa-4e99f1d1caec","geometry":{"coordinates":[12.8466,52.3722],"type":"Point"},"properties":{"name":"van dam\u0027s kirschenhof","city":"PLÖTZIN ( WERDER - HAVEL)","type_camping":"0","facilities":null,"address":null}},{"id":"d3217ed1-9735-42c4-a0ea-34f959d4a5cb","geometry":{"coordinates":[7.6595,49.8514],"type":"Point"},"properties":{"name":"camping bockenauerschweiz","city":"BOCKENAU","type_camping":"2","facilities":null,"address":null}},{"id":"642a8ea2-56a0-4dff-a2f4-f31c5d510b5d","geometry":{"coordinates":[10.2968,51.107],"type":"Point"},"properties":{"name":"landgasthof probstei zella","city":"FRANKENRODA ( THURINGEN)","type_camping":"2","facilities":null,"address":null}},{"id":"1bd555dc-0c7d-4303-9e0b-e327861ad5ab","geometry":{"coordinates":[9.7155,51.0677],"type":"Point"},"properties":{"name":"ferienhaus van wijk","city":"ALHEIM- OBERGUDE","type_camping":"1","facilities":null,"address":null}},{"id":"7f0272ce-3823-4568-921c-2e39ad1ddda3","geometry":{"coordinates":[8.4703,50.8462],"type":"Point"},"properties":{"name":"camping hinterland","city":"STEFFENBERG","type_camping":"2","facilities":null,"address":null}},{"id":"834b9a5e-fa38-4152-b634-035179574145","geometry":{"coordinates":[6.6059,50.2153],"type":"Point"},"properties":{"name":"waldferienpark gerolstein","city":"GEROLSTEIN","type_camping":"2","facilities":null,"address":null}},{"id":"599734d1-2e1f-416e-89cc-206b552a8c00","geometry":{"coordinates":[13.2614,54.4485],"type":"Point"},"properties":{"name":"camping ferienhof wolf","city":"GINGST","type_camping":"2","facilities":null,"address":null}},{"id":"8b638337-8dee-453f-9d38-413980825ee2","geometry":{"coordinates":[7.7357,49.7808],"type":"Point"},"properties":{"name":"gasthuis birkenhof","city":"DUCHROTH","type_camping":"1","facilities":null,"address":null}},{"id":"ffe2fb3d-dfda-4dad-b869-a881d397089b","geometry":{"coordinates":[7.0483,52.8767],"type":"Point"},"properties":{"name":"camping kloosterhoeve","city":"TER APEL","type_camping":"0","facilities":null,"address":null}},{"id":"98488889-a6f7-4b3a-a481-4f8a94d4a4b5","geometry":{"coordinates":[6.3716,53.2237],"type":"Point"},"properties":{"name":"camping \u0026 boertel \"de maarsdijk\"","city":"FAAN / NIEKERK","type_camping":"2","facilities":null,"address":null}},{"id":"b09b0640-df82-4d70-ab58-11ae1efb3d27","geometry":{"coordinates":[7.1385,53.0244],"type":"Point"},"properties":{"name":"minicamping de t-tuin","city":"VLAGTWEDDE","type_camping":"2","facilities":null,"address":null}},{"id":"ad6654f1-6ec2-4578-9d56-682a4c17333b","geometry":{"coordinates":[7.008,53.1936],"type":"Point"},"properties":{"name":"camping hoeve witteborg","city":"MIDWOLDA","type_camping":"2","facilities":null,"address":null}},{"id":"6dcd6479-5b30-420a-a5a7-f72f6d1b7fa3","geometry":{"coordinates":[6.7864,53.2006],"type":"Point"},"properties":{"name":"mini camping \u0027t hofje","city":"SLOCHTEREN","type_camping":"2","facilities":null,"address":null}},{"id":"5949ea9e-8348-4913-b8bf-4474196740fd","geometry":{"coordinates":[6.572,53.2894],"type":"Point"},"properties":{"name":"savanneboerderij verbaarum","city":"BEDUM","type_camping":"1","facilities":null,"address":null}},{"id":"9d84eb95-1ea4-4afa-a4e7-6176b6788bce","geometry":{"coordinates":[7.1269,52.9243],"type":"Point"},"properties":{"name":"camping de vreemde eend","city":"SELLINGEN","type_camping":"2","facilities":null,"address":null}},{"id":"735a4c4c-a94a-4b32-8b1d-1f645351525a","geometry":{"coordinates":[7.1572,53.1082],"type":"Point"},"properties":{"name":"camping rigtersheert","city":"BELLINGWOLDE","type_camping":"2","facilities":null,"address":null}},{"id":"3d125475-b34e-41a3-8727-846fbe4d7e3d","geometry":{"coordinates":[10.0422,51.3528],"type":"Point"},"properties":{"name":"campingplatz bergwiese thüringen","city":"THALWENDEN","type_camping":"2","facilities":null,"address":null}},{"id":"8fd57569-5bc8-4a4c-a0e8-a83226a6b42b","geometry":{"coordinates":[10.213,50.7044],"type":"Point"},"properties":{"name":"schloß roßdorf camping","city":"ROSSDORF","type_camping":"2","facilities":null,"address":null}},{"id":"27d31362-db3d-42c1-9a3e-3673c43b7324","geometry":{"coordinates":[13.6021,53.6092],"type":"Point"},"properties":{"name":"star camp cosa","city":"FRIEDLAND OT. COSA","type_camping":"2","facilities":null,"address":null}},{"id":"b4919012-dced-4354-9086-719f73ee6e41","geometry":{"coordinates":[10.5818,50.8406],"type":"Point"},"properties":{"name":"rennsteig-caravaning valentinsteich","city":"FRIEDRICHRODA OT FINSTERBERGEN","type_camping":"2","facilities":null,"address":null}},{"id":"95cd6136-d340-4a5d-abeb-0d3a12c7e4b6","geometry":{"coordinates":[10.2032,48.4655],"type":"Point"},"properties":{"name":"camping schwarzfelder hof","city":"LEIPHEIM/ RIEDHEIM","type_camping":"2","facilities":null,"address":null}},{"id":"54e7822a-4e68-47a2-8ebb-15652f68a017","geometry":{"coordinates":[7.0975,53.0461],"type":"Point"},"properties":{"name":"camping boerenbont","city":"VLAGTWEDDE","type_camping":"2","facilities":null,"address":null}},{"id":"b54ceb64-ab62-4e52-882e-0a1ede968cfc","geometry":{"coordinates":[6.3099,53.1503],"type":"Point"},"properties":{"name":"camperplaats \"het knooppunt\"","city":"NUIS","type_camping":"2","facilities":null,"address":null}},{"id":"5563d27a-36ff-4f8b-a3c3-aa23c001d4fa","geometry":{"coordinates":[6.1875,53.1641],"type":"Point"},"properties":{"name":"camping de poel","city":"OPENDE","type_camping":"0","facilities":null,"address":null}},{"id":"4b38f158-8507-4166-973c-3515f4adbe8d","geometry":{"coordinates":[6.4524,53.3996],"type":"Point"},"properties":{"name":"camping boet\u0027n toen","city":"PIETERBUREN","type_camping":"2","facilities":null,"address":null}},{"id":"20bcd481-5840-4314-97c6-406752a81069","geometry":{"coordinates":[6.4879,53.3979],"type":"Point"},"properties":{"name":"camping maereheerd","city":"DEN ANDEL","type_camping":"0","facilities":null,"address":null}},{"id":"d7c20777-c746-4766-a459-83fcddec7e25","geometry":{"coordinates":[6.2569,53.0582],"type":"Point"},"properties":{"name":"minicamping utsicht","city":"BAKKEVEEN","type_camping":"0","facilities":null,"address":null}},{"id":"80d90a94-ce69-4bb3-849d-363a6c2c7548","geometry":{"coordinates":[6.1665,52.8838],"type":"Point"},"properties":{"name":"camping rotandorp","city":"NOORDWOLDE","type_camping":"2","facilities":null,"address":null}},{"id":"04406bad-7388-4cef-9ca6-2b0f3da0f0d8","geometry":{"coordinates":[8.8584,52.4592],"type":"Point"},"properties":{"name":"microcamping ferienhof brinkort","city":"WARMSEN","type_camping":"2","facilities":null,"address":null}},{"id":"f079248b-8498-4581-bac2-dec4d64356bc","geometry":{"coordinates":[9.7249,51.3948],"type":"Point"},"properties":{"name":"spiegelburg camping und gasthaus","city":"HANN.MÜNDEN","type_camping":"2","facilities":null,"address":null}},{"id":"1b9ea7af-d1e7-44bb-80be-f22a743b040d","geometry":{"coordinates":[7.4114,52.4133],"type":"Point"},"properties":{"name":"campingplatz blauer see","city":"LUNNE","type_camping":"2","facilities":null,"address":null}},{"id":"1525829d-c896-4533-86d3-2af0b0866a27","geometry":{"coordinates":[10.2153,50.7042],"type":"Point"},"properties":{"name":"schloß roßdorf ferienwohnungen","city":"ROSSDORF (THÜRINGEN- RHÖN)","type_camping":"1","facilities":null,"address":null}},{"id":"9f45a60b-980d-454d-9a12-26c1bcb33907","geometry":{"coordinates":[7.1784,52.0736],"type":"Point"},"properties":{"name":"camping ferienhof wenker","city":"SCHOPPINGEN","type_camping":"2","facilities":null,"address":null}},{"id":"f31b01c1-ed0d-4aa5-8019-e86a55393ebe","geometry":{"coordinates":[13.5317,53.0489],"type":"Point"},"properties":{"name":"camping \" schorfheide camp \"","city":"TEMPLIN/OT VIETMANNSDORF","type_camping":"0","facilities":null,"address":null}},{"id":"d83310a2-5fdf-40ab-9c81-f491d63b4d94","geometry":{"coordinates":[9.085,47.9485],"type":"Point"},"properties":{"name":"erlebniswelt  tipihof","city":"SAULDORF","type_camping":"2","facilities":null,"address":null}},{"id":"cee0154a-6aa1-4969-965b-62fb45ec39e4","geometry":{"coordinates":[7.1937,52.2994],"type":"Point"},"properties":{"name":"campingplatz am berg","city":"BAD BENTHEIM","type_camping":"0","facilities":null,"address":null}},{"id":"a37486b0-4658-4f58-a6ce-41c991bfb246","geometry":{"coordinates":[9.5784,51.0258],"type":"Point"},"properties":{"name":"camping alte mühle","city":"ALHEIM- LICHERODE","type_camping":"2","facilities":null,"address":null}},{"id":"d486fffd-4e34-43c6-9fcf-d42366c65199","geometry":{"coordinates":[12.8321,53.9642],"type":"Point"},"properties":{"name":"camping gross methling","city":"DARGUN (55 KM VAN ROSTOCK)","type_camping":"2","facilities":null,"address":null}},{"id":"5c4dc573-7af7-4e4d-9383-5cad735bcf48","geometry":{"coordinates":[10.4426,51.3458],"type":"Point"},"properties":{"name":"minicamping en b\u0026b hintergarten","city":"NIEDERORSCHEL","type_camping":"2","facilities":null,"address":null}},{"id":"435de951-0f93-4c57-808e-9bedbbe338a5","geometry":{"coordinates":[7.7918,49.9337],"type":"Point"},"properties":{"name":"camping aumühle","city":"SCHWEPPENHAUSEN","type_camping":"2","facilities":null,"address":null}},{"id":"6427c1c9-b30a-431e-b4e1-0766c6e653ee","geometry":{"coordinates":[8.3954,51.2512],"type":"Point"},"properties":{"name":"campingplatz wiesental","city":"SCHMALLENBERG- BODEFELD","type_camping":"0","facilities":null,"address":null}},{"id":"62928768-81f2-4184-908a-6c3ce13b4915","geometry":{"coordinates":[8.5607,51.2284],"type":"Point"},"properties":{"name":"b \u0026 b isidorus","city":"WINTERBERG","type_camping":"1","facilities":null,"address":null}},{"id":"765263fa-339b-4de7-a6c6-3118d5104f33","geometry":{"coordinates":[7.7304,52.5936],"type":"Point"},"properties":{"name":"camping ferienhof nyenhuis","city":"BIPPEN","type_camping":"2","facilities":null,"address":null}},{"id":"74511f42-8fe8-4d52-ba09-5f7206a9ea83","geometry":{"coordinates":[5.8146,52.9177],"type":"Point"},"properties":{"name":"camping eefting","city":"ROHEL","type_camping":"2","facilities":null,"address":null}},{"id":"b083da73-2636-4b56-b708-e7ac7b6324ae","geometry":{"coordinates":[5.8749,52.8253],"type":"Point"},"properties":{"name":"camping pieters farm","city":"SCHERPENZEEL","type_camping":"2","facilities":null,"address":null}},{"id":"5b03204e-6be9-4ae1-a403-437072808e54","geometry":{"coordinates":[5.9124,53.2298],"type":"Point"},"properties":{"name":"camping de terpen","city":"RIJPERKERK","type_camping":"0","facilities":null,"address":null}},{"id":"d7871ae4-cecb-4b45-b6e8-a5621456e8c2","geometry":{"coordinates":[5.2874,53.3826],"type":"Point"},"properties":{"name":"stacaravan middelkamp","city":"TERSCHELLING MIDSLAND","type_camping":"1","facilities":null,"address":null}},{"id":"926c06b3-a9b7-44c6-96c4-5171c2ae18e4","geometry":{"coordinates":[5.9244,52.3207],"type":"Point"},"properties":{"name":"minicamping de pollen","city":"EMST","type_camping":"2","facilities":null,"address":null}},{"id":"cdc79c5b-7f46-4386-ba1f-7ba2f88952ca","geometry":{"coordinates":[5.9202,51.8093],"type":"Point"},"properties":{"name":"boerderijcamping de groote flierenberg","city":"BERG EN DAL","type_camping":"2","facilities":null,"address":null}},{"id":"26bafa22-e64a-4af2-9637-3125a62a364c","geometry":{"coordinates":[6.0223,52.1507],"type":"Point"},"properties":{"name":"camping de vinkenkamp","city":"LIEREN","type_camping":"2","facilities":null,"address":null}},{"id":"6e662ea0-36ac-4d2c-b002-d105aade79d3","geometry":{"coordinates":[6.3379,52.0755],"type":"Point"},"properties":{"name":"camping de boomgaard","city":"VORDEN","type_camping":"0","facilities":null,"address":null}},{"id":"27a39b2b-f27a-4d70-a18e-92f32da332c3","geometry":{"coordinates":[10.1732,51.1502],"type":"Point"},"properties":{"name":"camping altenburschla","city":"WANFRIED- ALTENBURSCHLA","type_camping":"2","facilities":null,"address":null}},{"id":"59b2e796-c54a-4094-93dd-87dd8c9a72db","geometry":{"coordinates":[9.6969,52.6889],"type":"Point"},"properties":{"name":"camping-aller-leine-tal","city":"ESSEL-ENGEHAUSEN","type_camping":"2","facilities":null,"address":null}},{"id":"2bc5a314-d7cc-40c3-bb9e-aa7c38d6a0d4","geometry":{"coordinates":[9.9735,47.5224],"type":"Point"},"properties":{"name":"camping aach","city":"OBERSTAUFEN","type_camping":"2","facilities":null,"address":null}},{"id":"9ce49afd-ee2e-4398-998d-786ce521cf57","geometry":{"coordinates":[10.0998,52.8887],"type":"Point"},"properties":{"name":"camping sonnenberg","city":"FAßBERG OT MÜDEN/ ÖRTZE","type_camping":"2","facilities":null,"address":null}},{"id":"65280c88-3310-44d1-aefd-fea47e628472","geometry":{"coordinates":[9.4426,51.885],"type":"Point"},"properties":{"name":"weserbergland - camping heinsen","city":"HEINSEN","type_camping":"0","facilities":null,"address":null}},{"id":"1c86481c-9588-410c-b952-3e8166666c53","geometry":{"coordinates":[14.2308,50.9832],"type":"Point"},"properties":{"name":"camping endler","city":"SEBNITZ ( SCHONBACH)","type_camping":"2","facilities":null,"address":null}},{"id":"89f5d2a6-9287-4cbb-9ccf-9fae890d14b0","geometry":{"coordinates":[11.6495,50.9726],"type":"Point"},"properties":{"name":"camping \u0026 ferienpark bei jena","city":"NEUENGONNA OT. PORSTENDORF","type_camping":"2","facilities":null,"address":null}},{"id":"58170dfe-9fa6-4a1c-ba21-acb56791a2cb","geometry":{"coordinates":[12.018,53.3887],"type":"Point"},"properties":{"name":"camping am blanksee","city":"KLEIN PANKOW","type_camping":"2","facilities":null,"address":null}},{"id":"7eed146d-1dd4-469b-a621-2cfb1e3ffffa","geometry":{"coordinates":[7.731,52.5835],"type":"Point"},"properties":{"name":"vakantiewoning / bed \u0026 breakfast","city":"BIPPEN","type_camping":"1","facilities":null,"address":null}},{"id":"07adc129-bc1a-413b-bc95-feb016d159bf","geometry":{"coordinates":[9.7123,51.0668],"type":"Point"},"properties":{"name":"ferienwohnung valora","city":"ALHEIM-OBERGUDE","type_camping":"1","facilities":null,"address":null}},{"id":"e779910d-f244-4b4f-918a-9337b2efc984","geometry":{"coordinates":[-4.8413,36.6256],"type":"Point"},"properties":{"name":"finca lagarto","city":"MONDA","type_camping":"2","facilities":null,"address":null}},{"id":"36aa45e0-9572-4ad0-a838-07eb575aa9b4","geometry":{"coordinates":[-2.9513,38.0232],"type":"Point"},"properties":{"name":"camping palomera","city":"SANTO TOME, JAEN","type_camping":"2","facilities":null,"address":null}},{"id":"7186474f-da3f-49ea-95f8-f3aa4b58fd4f","geometry":{"coordinates":[-0.8613,38.5182],"type":"Point"},"properties":{"name":"amigo\u0027s de acampada campo alegre","city":"SAX ( ALICANTE)","type_camping":"2","facilities":null,"address":null}},{"id":"f97e9b1d-92b4-4adb-923b-b223fc58ef6e","geometry":{"coordinates":[-2.8745,41.9253],"type":"Point"},"properties":{"name":"camping refugio de pescadores","city":"COVALEDA (SORIA)","type_camping":"2","facilities":null,"address":null}},{"id":"9a8e5a62-7051-434a-9c67-124b4de2607c","geometry":{"coordinates":[6.4196,52.6788],"type":"Point"},"properties":{"name":"camping de entekoele","city":"ZUIDWOLDE","type_camping":"2","facilities":null,"address":null}},{"id":"e1c04b17-0581-470a-a8a7-a81261a06857","geometry":{"coordinates":[6.8384,52.6788],"type":"Point"},"properties":{"name":"bij aquamarijn","city":"STIELTJESKANAAL","type_camping":"2","facilities":null,"address":null}},{"id":"2d076c80-53c2-466b-b10a-96831aa17717","geometry":{"coordinates":[6.797,52.7311],"type":"Point"},"properties":{"name":"camping mooi drenthe","city":"HOLSLOOT","type_camping":"2","facilities":null,"address":null}},{"id":"66797e37-73ac-4ea4-9215-d06d10fbd14c","geometry":{"coordinates":[6.6762,52.6718],"type":"Point"},"properties":{"name":"mini-camping estella","city":"COEVORDEN","type_camping":"2","facilities":null,"address":null}},{"id":"8b2b2f7b-9858-4475-a854-99f5df589f9e","geometry":{"coordinates":[6.4849,52.8025],"type":"Point"},"properties":{"name":"minicamping zorg-en-vrij","city":"WIJSTER","type_camping":"2","facilities":null,"address":null}},{"id":"c62e3c3e-872b-4f84-b4e4-2f9608175e05","geometry":{"coordinates":[6.4445,53.0532],"type":"Point"},"properties":{"name":"camping boschlust","city":"WESTERVELDE BIJ NORG","type_camping":"2","facilities":null,"address":null}},{"id":"fa8d650a-1d49-4561-b1fa-1fdd1ce42bc0","geometry":{"coordinates":[6.4628,52.47],"type":"Point"},"properties":{"name":"camping noord meer","city":"DEN HAM","type_camping":"2","facilities":null,"address":null}},{"id":"4aef21ac-1847-45de-a5dd-47316117ddb6","geometry":{"coordinates":[5.9097,52.805],"type":"Point"},"properties":{"name":"minicamping de stille verkwikking","city":"OSSENZIJL","type_camping":"2","facilities":null,"address":null}},{"id":"12749510-e2f1-4c82-acf3-101eb6954c5d","geometry":{"coordinates":[-7.7984,37.0733],"type":"Point"},"properties":{"name":"the lemon tree villa","city":"MONCARAPACHO","type_camping":"2","facilities":null,"address":null}},{"id":"2e8dae9a-53dc-4ccf-ae2d-0b7c4fed824b","geometry":{"coordinates":[-7.1679,39.1546],"type":"Point"},"properties":{"name":"camping lapa dos gaivoes","city":"ESPERANÇA","type_camping":"0","facilities":null,"address":null}},{"id":"e4d8cd78-3c18-4285-adda-e3accf00a6e3","geometry":{"coordinates":[-7.8434,52.3765],"type":"Point"},"properties":{"name":"the apple camp. \u0026 caravan park","city":"CAHIR, TIPPERARY","type_camping":"2","facilities":null,"address":null}},{"id":"d57dea27-2068-4206-9070-2e32de3b6a6f","geometry":{"coordinates":[16.7731,49.5098],"type":"Point"},"properties":{"name":"camping de bongerd","city":"BENESOV U BOSKOVICE","type_camping":"2","facilities":null,"address":null}},{"id":"232d490e-8430-409b-af01-4f71d9acd9b5","geometry":{"coordinates":[-4.1347,41.5894],"type":"Point"},"properties":{"name":"camping riberduero","city":"PENAFIEL","type_camping":"2","facilities":null,"address":null}},{"id":"fb5beb71-adef-46b4-9598-7b42fde8e1a6","geometry":{"coordinates":[-0.6856,39.034],"type":"Point"},"properties":{"name":"camping chellanatura","city":"CHELLA - VALENCIA","type_camping":"0","facilities":null,"address":null}},{"id":"4fb0efe2-4963-4a65-b940-d66cb63eec51","geometry":{"coordinates":[-8.2781,39.7007],"type":"Point"},"properties":{"name":"camping quinta da cerejeira","city":"FERREIRA DO ZEZERE","type_camping":"2","facilities":null,"address":null}},{"id":"f201c1df-e6d6-446d-a3c9-57c9254b0ba5","geometry":{"coordinates":[-7.9159,40.3516],"type":"Point"},"properties":{"name":"quinta do retiro parcampismo","city":"COVAS/ TABUA","type_camping":"2","facilities":null,"address":null}},{"id":"ae6df983-c294-47a6-bcd5-b4d15bb0321a","geometry":{"coordinates":[18.1415,46.1908],"type":"Point"},"properties":{"name":"forras camping","city":"MAGYARHERTELAND","type_camping":"2","facilities":null,"address":null}},{"id":"3a0c3ff2-32a3-4b2c-90da-74f044bcc48e","geometry":{"coordinates":[-8.2645,37.5675],"type":"Point"},"properties":{"name":"camping serro da bica","city":"OURIQUE","type_camping":"2","facilities":null,"address":null}},{"id":"7cc31fb7-58b1-4e27-bf10-66ca920cb083","geometry":{"coordinates":[17.3429,52.0688],"type":"Point"},"properties":{"name":"camping de kleine stad","city":"BOGUSZYN","type_camping":"2","facilities":null,"address":null}},{"id":"14d54dae-990d-451c-90cc-d7ebb01aa0da","geometry":{"coordinates":[18.1039,46.5902],"type":"Point"},"properties":{"name":"koppany pines camping","city":"KOPPANYSZANTO","type_camping":"2","facilities":null,"address":null}},{"id":"6c86689c-1359-4f72-8730-234cc45429fd","geometry":{"coordinates":[18.1102,46.1714],"type":"Point"},"properties":{"name":"buitenleven hongarije","city":"KOVÁCSSZÉNÁJA","type_camping":"1","facilities":null,"address":null}},{"id":"7a75442f-6a94-4c10-ba4a-dd9a10fcd122","geometry":{"coordinates":[15.3779,49.685],"type":"Point"},"properties":{"name":"camping zebrakov","city":"SVETLA NAD SAZAVOU","type_camping":"0","facilities":null,"address":null}},{"id":"2a9054dd-9cb9-4ea6-90ce-7b12a2bed7d0","geometry":{"coordinates":[16.2287,50.6162],"type":"Point"},"properties":{"name":"camping aktief","city":"VERNEROVICE- MEZIMESTI","type_camping":"2","facilities":null,"address":null}},{"id":"618135ac-b2ef-4889-9811-bf460c06251a","geometry":{"coordinates":[13.2399,49.2809],"type":"Point"},"properties":{"name":"camping u dvou orechu","city":"STRAZOV NA SUMAVA","type_camping":"0","facilities":null,"address":null}},{"id":"222480e8-22b8-4ff1-abd1-79385c567ef1","geometry":{"coordinates":[-4.8593,37.6226],"type":"Point"},"properties":{"name":"camping la campina","city":"CORDOBA","type_camping":"2","facilities":null,"address":null}},{"id":"cfcd898b-4efe-438e-92f5-85a47370565d","geometry":{"coordinates":[-6.6331,40.1817],"type":"Point"},"properties":{"name":"camping el merino","city":"VILLASBUENAS DE GATA","type_camping":"2","facilities":null,"address":null}},{"id":"74c787dc-8a83-469c-83e1-57fb57fc676b","geometry":{"coordinates":[-0.24,40.8292],"type":"Point"},"properties":{"name":"camping la palanca","city":"MAS DE LAS MATAS, TERUAL","type_camping":"2","facilities":null,"address":null}},{"id":"5405f7ae-1638-420a-8fca-7a7f2d3ed425","geometry":{"coordinates":[-7.4866,39.4008],"type":"Point"},"properties":{"name":"camping quinta do pomarinho","city":"CASTELO DE VIDE","type_camping":"2","facilities":null,"address":null}},{"id":"17a052f8-7b80-4168-b887-f357d878ead0","geometry":{"coordinates":[19.3264,50.0005],"type":"Point"},"properties":{"name":"camping polanka","city":"POLANKA WIELKA","type_camping":"0","facilities":null,"address":null}},{"id":"f3d65607-5cb4-46ff-9794-f215d78360c6","geometry":{"coordinates":[15.1158,52.4126],"type":"Point"},"properties":{"name":"camp marina","city":"SULECIN","type_camping":"2","facilities":null,"address":null}},{"id":"a955dc40-0020-4b5f-a66a-7a134e7a6ac7","geometry":{"coordinates":[20.8357,50.9716],"type":"Point"},"properties":{"name":"feel free farm","city":"BODZENTYN","type_camping":"2","facilities":null,"address":null}},{"id":"055af726-9197-4dcf-8299-05a3aa9d7838","geometry":{"coordinates":[22.3796,49.1824],"type":"Point"},"properties":{"name":"camping panorama","city":"PRZYSLUP","type_camping":"2","facilities":null,"address":null}},{"id":"fd5f7c39-d8e6-4fc4-a2e9-8465c3c71c9a","geometry":{"coordinates":[14.0144,49.5889],"type":"Point"},"properties":{"name":"camping horjany","city":"BREZNICE","type_camping":"2","facilities":null,"address":null}},{"id":"87ed186f-2618-4b4e-ab05-83e79db9c706","geometry":{"coordinates":[15.0654,49.1489],"type":"Point"},"properties":{"name":"camping jindris","city":"JINDRICHUV HRADEC","type_camping":"2","facilities":null,"address":null}},{"id":"5582a891-339c-4a77-b15c-d054593dbeed","geometry":{"coordinates":[16.4069,50.1188],"type":"Point"},"properties":{"name":"camping rekbo cesko sro","city":"SLATINA NAD ZDOBNICE","type_camping":"2","facilities":null,"address":null}},{"id":"760472f1-4690-445f-8ed0-fbf254895574","geometry":{"coordinates":[-8.9659,39.5261],"type":"Point"},"properties":{"name":"camping silveira","city":"ALCOBAÇA","type_camping":"0","facilities":null,"address":null}},{"id":"88a26f0b-4436-4f4a-b2ec-17371abe15df","geometry":{"coordinates":[-8.7889,39.9916],"type":"Point"},"properties":{"name":"campismo o tamanco","city":"CARRIÇO","type_camping":"2","facilities":null,"address":null}},{"id":"6d3520c2-b0e3-4036-8756-22d383402db8","geometry":{"coordinates":[-8.1996,40.0013],"type":"Point"},"properties":{"name":"quinta do castanheiro","city":"CASTANHEIRA DE PÊRA","type_camping":"2","facilities":null,"address":null}},{"id":"624a20a3-8c67-4bb6-9793-b96f026757c4","geometry":{"coordinates":[-8.3369,39.6381],"type":"Point"},"properties":{"name":"camping pelinos","city":"ABOBOREIRAS - TOMAR","type_camping":"0","facilities":null,"address":null}},{"id":"3a661b68-1d7c-4508-b927-83d92dd52f7a","geometry":{"coordinates":[-8.401,37.6411],"type":"Point"},"properties":{"name":"monte maravilhas","city":"SÃO MARTINHO DAS AMOREIRAS","type_camping":"2","facilities":null,"address":null}},{"id":"4ca6d6ec-9eaa-419f-94eb-25a92a75ef06","geometry":{"coordinates":[-7.9584,41.4865],"type":"Point"},"properties":{"name":"campismo arco","city":"ARCO DE BAUHLE","type_camping":"2","facilities":null,"address":null}},{"id":"6f3070e7-fe2c-41f3-8a00-297571097f9d","geometry":{"coordinates":[-8.7388,40.0814],"type":"Point"},"properties":{"name":"camping termas da azenha","city":"SOURE","type_camping":"2","facilities":null,"address":null}},{"id":"24dc0e71-187e-4692-9ebc-c930fe14161c","geometry":{"coordinates":[-7.8266,40.4037],"type":"Point"},"properties":{"name":"camping toca da raposa","city":"MERUGE / OLIVEIRA DO HOSPITAL","type_camping":"2","facilities":null,"address":null}},{"id":"1bfa0674-b1b0-4f9d-b836-5537133a7d49","geometry":{"coordinates":[-7.0483,39.0083],"type":"Point"},"properties":{"name":"camping rural os anjos","city":"CAMPO MAIOR","type_camping":"0","facilities":null,"address":null}},{"id":"9f5a1097-c373-47a9-b1c4-b244c98fadbd","geometry":{"coordinates":[15.3609,50.9865],"type":"Point"},"properties":{"name":"camping mirsk","city":"MIRSK ( GIEBULTOW)","type_camping":"2","facilities":null,"address":null}},{"id":"c6a63c05-0cbe-42a3-84c7-f115eb30a05d","geometry":{"coordinates":[17.9948,46.6469],"type":"Point"},"properties":{"name":"kamperen en vakantie bij la petite étoile","city":"MIKLOSI","type_camping":"2","facilities":null,"address":null}},{"id":"cc7665cd-86f5-499e-a134-e1d583d9e84b","geometry":{"coordinates":[18.3087,46.2335],"type":"Point"},"properties":{"name":"nature camping máré vára","city":"MAGYAREGREGY","type_camping":"2","facilities":null,"address":null}},{"id":"c850bb3f-7cbe-4ba1-ba9a-d91fe89cf2a7","geometry":{"coordinates":[-6.7804,52.2168],"type":"Point"},"properties":{"name":"bridge house bannow bay","city":"BANNOW, COUNTY WEXFORD","type_camping":"2","facilities":null,"address":null}},{"id":"42ea0ad6-01cd-48d6-acc5-84ccb2a1cf96","geometry":{"coordinates":[16.1174,50.9328],"type":"Point"},"properties":{"name":"camping pod lasem","city":"BOLKOW","type_camping":"2","facilities":null,"address":null}},{"id":"33c97671-d5de-4221-af16-3e9bc5f2a43b","geometry":{"coordinates":[16.6951,50.7555],"type":"Point"},"properties":{"name":"camping forteca","city":"UCIECHOW","type_camping":"2","facilities":null,"address":null}},{"id":"e2fcbb2a-9618-48c8-96f0-eceae74679ec","geometry":{"coordinates":[19.9167,47.0458],"type":"Point"},"properties":{"name":"camping acacia tanya","city":"KOCSER","type_camping":"0","facilities":null,"address":null}},{"id":"f5060553-1d1c-4772-bd6c-0ec5dc745273","geometry":{"coordinates":[17.7789,46.5207],"type":"Point"},"properties":{"name":"camping het koetshuis","city":"SOMOGYGESZTI","type_camping":"0","facilities":null,"address":null}},{"id":"a0e35b36-8e99-427d-b4ab-e4a29239ef18","geometry":{"coordinates":[-0.8376,54.4518],"type":"Point"},"properties":{"name":"wild slack farm","city":"LEALHOLM WHITBY","type_camping":"2","facilities":null,"address":null}},{"id":"6921492e-881e-416d-9d2c-c6547fc45add","geometry":{"coordinates":[0.4182,51.0764],"type":"Point"},"properties":{"name":"cedar gables campsite","city":"WADHURST, EAST SUSSEX","type_camping":"0","facilities":null,"address":null}},{"id":"34e560cb-1c91-43a8-b11b-4ade0dfd26cb","geometry":{"coordinates":[-1.096,53.8761],"type":"Point"},"properties":{"name":"home farm camping","city":"STILLINGFLEET YORK","type_camping":"0","facilities":null,"address":null}},{"id":"d977a660-aaee-479f-ba40-eaab65b61b6e","geometry":{"coordinates":[15.6559,49.2094],"type":"Point"},"properties":{"name":"camping vidlak","city":"OPATOV NA MORAVE","type_camping":"2","facilities":null,"address":null}},{"id":"3f38dfd3-8135-4a07-a384-681a0c8d6aa1","geometry":{"coordinates":[15.2048,50.9156],"type":"Point"},"properties":{"name":"camping ludvikov horses and holiday","city":"NOVE MESTO POD SMRKEM","type_camping":"2","facilities":null,"address":null}},{"id":"d36d4f7b-75fe-40bd-896b-42b52ca55683","geometry":{"coordinates":[14.4646,51.0021],"type":"Point"},"properties":{"name":"camping de regenboog","city":"SLUKNOV","type_camping":"2","facilities":null,"address":null}},{"id":"1a2a60e0-479e-449e-ade1-10a7ea7fa525","geometry":{"coordinates":[-7.5416,40.5207],"type":"Point"},"properties":{"name":"camping quinta das cegonhas","city":"GOUVEIA","type_camping":"2","facilities":null,"address":null}},{"id":"ec36428e-5e53-4622-adde-5ee8051690dc","geometry":{"coordinates":[20.4557,46.2031],"type":"Point"},"properties":{"name":"camping motel makó","city":"MAKÓ- MAROSPART","type_camping":"2","facilities":null,"address":null}},{"id":"2b67c0ec-3184-412f-8003-66cbf2e08eba","geometry":{"coordinates":[20.5061,47.3921],"type":"Point"},"properties":{"name":"puszta eldorado","city":"TISZAGYENDA","type_camping":"2","facilities":null,"address":null}},{"id":"96506db9-d459-4b9c-95dd-1baf07ff15aa","geometry":{"coordinates":[-4.5225,50.6077],"type":"Point"},"properties":{"name":"travellers rest campsite","city":"LAUNCESTON","type_camping":"2","facilities":null,"address":null}},{"id":"89ddba55-39a5-4f2c-9be4-81c15be53330","geometry":{"coordinates":[16.2938,49.5438],"type":"Point"},"properties":{"name":"autocamp na kopci","city":"BYSTRICE NAD PERNSTENJEM","type_camping":"2","facilities":null,"address":null}},{"id":"b325fc01-3156-4dce-98bc-31d7415c205a","geometry":{"coordinates":[-7.696,40.8226],"type":"Point"},"properties":{"name":"camping quinta chave grande","city":"CASFREIRES/ SÁTÃO","type_camping":"2","facilities":null,"address":null}},{"id":"578a1624-34e5-4cbf-abe8-0236461af3ce","geometry":{"coordinates":[20.25,48.0841],"type":"Point"},"properties":{"name":"kemping-panzio bekölce","city":"BEKÖLCE","type_camping":"2","facilities":null,"address":null}},{"id":"ca6f47bd-4ab2-4b08-bddf-18eb9afafe62","geometry":{"coordinates":[6.285,53.1133],"type":"Point"},"properties":{"name":"boerencamping op29","city":"DE WILP","type_camping":"2","facilities":null,"address":null}},{"id":"56d44a77-3c2c-478b-910b-9e28ebafd61b","geometry":{"coordinates":[8.3111,46.9465],"type":"Point"},"properties":{"name":"camping hostetten","city":"ENNETMOOS","type_camping":"2","facilities":null,"address":null}},{"id":"05c577df-239e-4fcb-8e27-49c240a3cabb","geometry":{"coordinates":[11.7661,45.9682],"type":"Point"},"properties":{"name":"camping gajole","city":"ARSIÉ ( BELLUNO)","type_camping":"2","facilities":null,"address":null}},{"id":"d8e1532b-0ad6-4334-937d-6a360b29be21","geometry":{"coordinates":[6.2102,53.1203],"type":"Point"},"properties":{"name":"minicamping haarsterveld","city":"MARUM","type_camping":"0","facilities":null,"address":null}},{"id":"d4a27665-1a88-4916-b4f8-b0914d1daef3","geometry":{"coordinates":[5.8271,53.1534],"type":"Point"},"properties":{"name":"camping swichumer pleats","city":"SWICHUM","type_camping":"2","facilities":null,"address":null}},{"id":"e783827f-b59f-4939-bbb0-befc80eb61b6","geometry":{"coordinates":[8.9999,55.4413],"type":"Point"},"properties":{"name":"foldingbro camping and put \u0026 take","city":"BRØRUP","type_camping":"2","facilities":null,"address":null}},{"id":"f3a08065-2c08-4846-9502-521de696e225","geometry":{"coordinates":[7.8428,58.6006],"type":"Point"},"properties":{"name":"oddestemmen steinsliperi og camping","city":"EVJE","type_camping":"2","facilities":null,"address":null}},{"id":"fd801cd8-4cc0-4e8b-8b1f-0afbfcf1cb2f","geometry":{"coordinates":[9.058,60.7802],"type":"Point"},"properties":{"name":"tubbehaugen camping","city":"GOL","type_camping":"2","facilities":null,"address":null}},{"id":"130ff3a1-4858-4b98-ba6f-c71a3f682dd6","geometry":{"coordinates":[25.4153,47.5342],"type":"Point"},"properties":{"name":"camping de vuurplaats","city":"FUNDU MOLDOVEI","type_camping":"2","facilities":null,"address":null}},{"id":"7d11b24a-c56c-4dbf-a1a7-36f55402e1c1","geometry":{"coordinates":[14.9396,48.5454],"type":"Point"},"properties":{"name":"waldviertel camping / gasthof einfalt","city":"GROß GERUNGS","type_camping":"2","facilities":null,"address":null}},{"id":"5f9a4797-04c6-47be-b243-a547151f6a4d","geometry":{"coordinates":[7.4752,59.2436],"type":"Point"},"properties":{"name":"flateland camping","city":"VALLE","type_camping":"2","facilities":null,"address":null}},{"id":"9a82c2ce-3cf3-402f-bf11-cf68ab5dd5fd","geometry":{"coordinates":[15.1539,48.9717],"type":"Point"},"properties":{"name":"haarstubencamping reingers","city":"REINGERS","type_camping":"0","facilities":null,"address":null}},{"id":"d4413038-5f75-475e-adbb-09095b735682","geometry":{"coordinates":[12.9569,63.7016],"type":"Point"},"properties":{"name":"kallsedets camping \u0026 stugor","city":"JARPEN","type_camping":"2","facilities":null,"address":null}},{"id":"839ae1f9-e191-4ba2-9bd2-5eb0903b178d","geometry":{"coordinates":[16.4797,60.1812],"type":"Point"},"properties":{"name":"falkudden camping cafe och stugby","city":"BY KYRKBY","type_camping":"2","facilities":null,"address":null}},{"id":"5f99b38a-760c-485e-877e-2b90a6d84029","geometry":{"coordinates":[16.6216,62.9904],"type":"Point"},"properties":{"name":"wilderness adventures sweden","city":"BISPGÅRDEN JÄMTLAND","type_camping":"2","facilities":null,"address":null}},{"id":"2f639fa2-ddee-417c-b3a7-7b1fc5ea6af9","geometry":{"coordinates":[13.4572,59.9696],"type":"Point"},"properties":{"name":"vakantie in zweden","city":"LAKENE","type_camping":"2","facilities":null,"address":null}},{"id":"64dc3438-1297-41e9-ab5b-afaf4ac6f3a8","geometry":{"coordinates":[5.8006,49.9465],"type":"Point"},"properties":{"name":"camping um bierg","city":"TARCHAMPS","type_camping":"2","facilities":null,"address":null}},{"id":"47bcf5e9-bc71-488c-bf93-901c5b5a8fb2","geometry":{"coordinates":[6.1575,49.5695],"type":"Point"},"properties":{"name":"camping bon accueil alzingen","city":"ALZINGEN","type_camping":"0","facilities":null,"address":null}},{"id":"225845f3-d530-4924-90ce-00418c114472","geometry":{"coordinates":[14.019,49.5161],"type":"Point"},"properties":{"name":"camping \u0026 guesthouse pliskovice","city":"MIROVICE","type_camping":"2","facilities":null,"address":null}},{"id":"879ac4fe-44ff-48cb-9bd6-1eaf1958cea1","geometry":{"coordinates":[6.0071,49.9251],"type":"Point"},"properties":{"name":"camping berkel","city":"BOCKHOLTZ","type_camping":"2","facilities":null,"address":null}},{"id":"3e87cab0-092d-4cb5-ae6d-18175fa33b52","geometry":{"coordinates":[15.9687,50.6768],"type":"Point"},"properties":{"name":"camping královec","city":"KRÁLOVEC","type_camping":"0","facilities":null,"address":null}},{"id":"65f74c9e-6fbe-40a5-a8dc-32c22d0c38e9","geometry":{"coordinates":[15.8612,44.305],"type":"Point"},"properties":{"name":"camping lika","city":"GRACAC","type_camping":"0","facilities":null,"address":null}},{"id":"a6bf1063-48e2-4737-abe8-39bbe6613ca3","geometry":{"coordinates":[6.3303,53.1024],"type":"Point"},"properties":{"name":"camping \"aan de bosrand\"","city":"ZEVENHUIZEN","type_camping":"2","facilities":null,"address":null}},{"id":"5e249ae1-d3d0-483e-9c7b-ade2ad474f49","geometry":{"coordinates":[6.4027,53.3869],"type":"Point"},"properties":{"name":"camping de horizon molenrij","city":"KLOOSTERBUREN","type_camping":"2","facilities":null,"address":null}},{"id":"47c2c31c-d915-4654-ae98-999a8cf6207e","geometry":{"coordinates":[7.0289,53.0994],"type":"Point"},"properties":{"name":"camping zomersbuiten","city":"OUDE PEKELA","type_camping":"2","facilities":null,"address":null}},{"id":"82581fd9-b57d-482a-8b79-2c453e9bc4c7","geometry":{"coordinates":[16.3975,50.5956],"type":"Point"},"properties":{"name":"camping sonov","city":"SONOV U BROUMOVA (NACHOD)","type_camping":"2","facilities":null,"address":null}},{"id":"5f7c91e1-746b-4c4c-8e43-1b1b6fe313d7","geometry":{"coordinates":[8.4459,47.1212],"type":"Point"},"properties":{"name":"erlebnisbauernhof gerbe","city":"MEIERSKAPPEL","type_camping":"0","facilities":null,"address":null}},{"id":"cf9b0ef6-800a-4aa6-b967-6ec30254483f","geometry":{"coordinates":[23.8935,47.746],"type":"Point"},"properties":{"name":"camping babou maramures","city":"BREB MARAMUREȘ","type_camping":"0","facilities":null,"address":null}},{"id":"eda469c6-8c89-4e12-ac2d-8b67accad34e","geometry":{"coordinates":[12.9113,46.9092],"type":"Point"},"properties":{"name":"bio camping lindlerhof am see","city":"MORTSCHACH/ MOLLTAL","type_camping":"2","facilities":null,"address":null}},{"id":"ea4112f2-4577-436d-bb1c-c01d0ccb656c","geometry":{"coordinates":[14.0169,48.5252],"type":"Point"},"properties":{"name":"camping mühlviertelblick","city":"ARNREIT","type_camping":"0","facilities":null,"address":null}},{"id":"5ec7b492-f528-46e1-8421-953ed3d437f7","geometry":{"coordinates":[13.0311,47.2975],"type":"Point"},"properties":{"name":"camping biohof unteregg","city":"EMBACH ( LEND)","type_camping":"2","facilities":null,"address":null}},{"id":"a88a2a52-35f6-49f9-b779-4c5795cc1998","geometry":{"coordinates":[12.8856,46.9787],"type":"Point"},"properties":{"name":"camping gasthof zirknitzer","city":"GROßKIECHHEIM","type_camping":"2","facilities":null,"address":null}},{"id":"0391f1db-54c3-471a-94f9-6f4ceb07648c","geometry":{"coordinates":[16.8413,48.3433],"type":"Point"},"properties":{"name":"marchcamping zwerndorf","city":"ZWERNDORF","type_camping":"2","facilities":null,"address":null}},{"id":"820da862-6cd5-4638-b190-ab53b3ee551d","geometry":{"coordinates":[13.5903,46.6085],"type":"Point"},"properties":{"name":"camping am bauernhof","city":"ST. GEORGEN, NOTSCH IM GAILTAL","type_camping":"0","facilities":null,"address":null}},{"id":"40f0d6fe-cfb5-47d3-a021-59b46e7cdb6b","geometry":{"coordinates":[14.0327,46.6892],"type":"Point"},"properties":{"name":"bauernhofcamping prefelnig","city":"OSSIACH","type_camping":"2","facilities":null,"address":null}},{"id":"0f2c284a-3173-4eb3-a6ec-99464008b1ed","geometry":{"coordinates":[13.1665,46.7478],"type":"Point"},"properties":{"name":"camping reiter","city":"GREIFENBURG","type_camping":"2","facilities":null,"address":null}},{"id":"10d9b534-32fa-4c6e-9d38-9547d02cb85f","geometry":{"coordinates":[13.0977,46.6589],"type":"Point"},"properties":{"name":"camping leifling","city":"DELLACH AN DER GAIL","type_camping":"0","facilities":null,"address":null}},{"id":"63684140-9a18-4dcb-9c40-364088f8d25b","geometry":{"coordinates":[18.8652,63.691],"type":"Point"},"properties":{"name":"trehörningsjö camping \u0026 stugor","city":"TREHÖRNINGSJÖ","type_camping":"2","facilities":null,"address":null}},{"id":"7dc553bc-70dd-4294-aa55-ad5851953bbe","geometry":{"coordinates":[16.344,63.1204],"type":"Point"},"properties":{"name":"hammarstrands camping, stuga en café","city":"HAMMARSTRAND","type_camping":"2","facilities":null,"address":null}},{"id":"545ceff4-c6f1-4e39-a423-3fbfef6e9d24","geometry":{"coordinates":[16.5809,63.6558],"type":"Point"},"properties":{"name":"camping steffensgard","city":"RAMSELE","type_camping":"2","facilities":null,"address":null}},{"id":"6480abfa-02fc-4a34-9add-1810f2bcd006","geometry":{"coordinates":[13.9308,60.9537],"type":"Point"},"properties":{"name":"venjans camping","city":"VENJAN","type_camping":"2","facilities":null,"address":null}},{"id":"821b0e20-394f-49c4-90cf-d6bc0beeb589","geometry":{"coordinates":[13.5366,60.1525],"type":"Point"},"properties":{"name":"sun dance ranch camping","city":"EKSHÄRAD","type_camping":"2","facilities":null,"address":null}},{"id":"d64cbb63-740b-45fc-8108-157db27ec40e","geometry":{"coordinates":[14.8533,56.2318],"type":"Point"},